{
"type": "FeatureCollection",
"name": "chamber_of_commerce_members",
"crs": { "type": "name", "properties": { "name": "urn:ogc:def:crs:OGC:1.3:CRS84" } },
"features": [
{ "type": "Feature", "properties": { "Id": 178570, "Name": "14 Bells Fine Art Gallery", "Slug": "14-bells-fine-art-gallery", "Lat": 44.662216, "Lon": -63.5992441, "Address": "5523b Young St", "City": "Halifax", "State": "NS", "Zip": "B3K 1Z7", "Phone": null, "Upg": "true" }, "geometry": { "type": "Point", "coordinates": [ -63.5992441, 44.662216 ] } },
{ "type": "Feature", "properties": { "Id": 178664, "Name": "30 Minute Hit", "Slug": "30-minute-hit-halifax", "Lat": 44.6619326, "Lon": -63.6008037, "Address": "#2 5651 Hennessey Street", "City": "Halifax", "State": "NS", "Zip": "B3K 2B1", "Phone": null, "Upg": "true" }, "geometry": { "type": "Point", "coordinates": [ -63.6008037, 44.6619326 ] } },
{ "type": "Feature", "properties": { "Id": 180533, "Name": "5star Security & Bailiff Services", "Slug": "5star-security-bailiff-services", "Lat": 44.7091038, "Lon": -63.5927515, "Address": "48 Trider Crescent", "City": "Dartmouth", "State": "NS", "Zip": "B3B 1W5", "Phone": null, "Upg": "true" }, "geometry": { "type": "Point", "coordinates": [ -63.5927515, 44.7091038 ] } },
{ "type": "Feature", "properties": { "Id": 174950, "Name": "902 Post Inc.", "Slug": "902-post-inc-halifax", "Lat": 44.6433926, "Lon": -63.5764289, "Address": "5475 Spring Garden Road", "City": "Halifax", "State": "NS", "Zip": "B3J 3T2", "Phone": null, "Upg": "true" }, "geometry": { "type": "Point", "coordinates": [ -63.5764289, 44.6433926 ] } },
{ "type": "Feature", "properties": { "Id": 179297, "Name": "902 Sign Group Ltd.", "Slug": "902-sign-group-ltd", "Lat": 46.142188, "Lon": -60.19903, "Address": "90 Esplanade", "City": "Sydney", "State": "NS", "Zip": "B1P 1A1", "Phone": null, "Upg": "true" }, "geometry": { "type": "Point", "coordinates": [ -60.19903, 46.142188 ] } },
{ "type": "Feature", "properties": { "Id": 179256, "Name": "A Tiny Lab for Early Learning", "Slug": "a-tiny-lab-for-early-learning", "Lat": 44.6530265, "Lon": -63.5840925, "Address": "2236 Maitland St", "City": "Halifax", "State": "NS", "Zip": "B3K 2Z9", "Phone": null, "Upg": "true" }, "geometry": { "type": "Point", "coordinates": [ -63.5840925, 44.6530265 ] } },
{ "type": "Feature", "properties": { "Id": 178653, "Name": "A.C. Covert Distributors", "Slug": "a-c-covert-distributors", "Lat": 44.7187711, "Lon": -63.562757, "Address": "390 Higney Ave.", "City": "Dartmouth", "State": "NS", "Zip": "B3B 0L4", "Phone": null, "Upg": "true" }, "geometry": { "type": "Point", "coordinates": [ -63.562757, 44.7187711 ] } },
{ "type": "Feature", "properties": { "Id": 1765, "Name": "A.G. Brown & Sons Limited", "Slug": "a-g-brown-sons-limited", "Lat": 44.6613119, "Lon": -63.615124, "Address": "3500 Kempt Rd", "City": "Halifax", "State": "NS", "Zip": "B3K 4X8", "Phone": null, "Upg": "true" }, "geometry": { "type": "Point", "coordinates": [ -63.615124, 44.6613119 ] } },
{ "type": "Feature", "properties": { "Id": 179525, "Name": "ABC & C Auto Inc", "Slug": "abc-c-auto-inc", "Lat": 44.6254469, "Lon": -63.6173246, "Address": "179 Herring Cove Rd", "City": "Halifax", "State": "NS", "Zip": "B3P 1K9", "Phone": null, "Upg": "true" }, "geometry": { "type": "Point", "coordinates": [ -63.6173246, 44.6254469 ] } },
{ "type": "Feature", "properties": { "Id": 15671, "Name": "ABL Environmental Consultants Ltd.", "Slug": "abl-environmental-consultants-ltd", "Lat": 44.6976164, "Lon": -63.8363853, "Address": "25 Manchester Dr", "City": "Stillwater Lake", "State": "NS", "Zip": "B3Z 4R3", "Phone": null, "Upg": "true" }, "geometry": { "type": "Point", "coordinates": [ -63.8363853, 44.6976164 ] } },
{ "type": "Feature", "properties": { "Id": 19209, "Name": "Absolute International Logistics", "Slug": "absolute-international-logistics", "Lat": 44.7091038, "Lon": -63.5927515, "Address": "48 Trider Cres", "City": "Dartmouth", "State": "NS", "Zip": "B3B 1W5", "Phone": null, "Upg": "true" }, "geometry": { "type": "Point", "coordinates": [ -63.592751500000013, 44.7091038 ] } },
{ "type": "Feature", "properties": { "Id": 17196, "Name": "ACADA - Atlantic Canada Aerospace and Defence Association", "Slug": "acada-atlantic-canada-aerospace-and-defence-association", "Lat": 44.6487608, "Lon": -63.5730816, "Address": "5151 George Street", "City": "Halifax", "State": "NS", "Zip": "B3J 1M5", "Phone": null, "Upg": "true" }, "geometry": { "type": "Point", "coordinates": [ -63.5730816, 44.6487608 ] } },
{ "type": "Feature", "properties": { "Id": 179877, "Name": "Acadia Broadcasting ", "Slug": "acadia-broadcasting-dartmouth", "Lat": 44.6806305, "Lon": -63.5419252, "Address": "100 Main Street Suite 2035", "City": "Dartmouth ", "State": "NS", "Zip": "B2X 1R5", "Phone": null, "Upg": "true" }, "geometry": { "type": "Point", "coordinates": [ -63.5419252, 44.6806305 ] } },
{ "type": "Feature", "properties": { "Id": 179602, "Name": "Acadia University", "Slug": "acadia-university-wolfville-902-698-0148", "Lat": 45.0885733, "Lon": -64.366817, "Address": "15 University Ave", "City": "Wolfville", "State": "NS", "Zip": "B4P 2R6", "Phone": null, "Upg": "true" }, "geometry": { "type": "Point", "coordinates": [ -64.366817, 45.0885733 ] } },
{ "type": "Feature", "properties": { "Id": 36, "Name": "Acadian Seaplants Limited", "Slug": "acadian-seaplants-limited", "Lat": 44.6961896, "Lon": -63.5955681, "Address": "30 Brown Ave", "City": "Dartmouth", "State": "NS", "Zip": "B3B 1X8", "Phone": null, "Upg": "true" }, "geometry": { "type": "Point", "coordinates": [ -63.5955681, 44.6961896 ] } },
{ "type": "Feature", "properties": { "Id": 175338, "Name": "ACCEL Physiotherapy and Sport Performance Centre", "Slug": "accel-physiotherapy-and-sport-performance-centre", "Lat": 44.7059277, "Lon": -63.5902931, "Address": "101-137 Venture Run", "City": "Dartmouth ", "State": "NS", "Zip": "B3B 0L9", "Phone": null, "Upg": "true" }, "geometry": { "type": "Point", "coordinates": [ -63.5902931, 44.7059277 ] } },
{ "type": "Feature", "properties": { "Id": 178677, "Name": "Access Acupuncture", "Slug": "access-acupuncture", "Lat": 44.7065838, "Lon": -63.6094126, "Address": "11 Akerley Blvd", "City": "Dartmouth", "State": "NS", "Zip": "B3B 1V7", "Phone": null, "Upg": "true" }, "geometry": { "type": "Point", "coordinates": [ -63.6094126, 44.7065838 ] } },
{ "type": "Feature", "properties": { "Id": 176402, "Name": "Ace Mechanical Limited", "Slug": "ace-mechanical-limited", "Lat": 44.6647971, "Lon": -63.6191164, "Address": "3731 MacKintosh St", "City": "Halifax", "State": "Nova Scotia", "Zip": "B3K 5A5", "Phone": null, "Upg": "true" }, "geometry": { "type": "Point", "coordinates": [ -63.6191164, 44.6647971 ] } },
{ "type": "Feature", "properties": { "Id": 178668, "Name": "Action Consulting Group  ", "Slug": "action-consulting-group", "Lat": 44.6472147, "Lon": -63.5715375, "Address": "1657 Bedford Row", "City": "Halifax", "State": "NS", "Zip": "B3J 1T1", "Phone": null, "Upg": "true" }, "geometry": { "type": "Point", "coordinates": [ -63.5715375, 44.6472147 ] } },
{ "type": "Feature", "properties": { "Id": 18422, "Name": "Admiral Insurance", "Slug": "admiral-insurance", "Lat": 44.6446107, "Lon": -63.6183592, "Address": "6940 Mumford Road, Suite 200", "City": "Halifax", "State": "NS", "Zip": "B3L 0B7", "Phone": null, "Upg": "true" }, "geometry": { "type": "Point", "coordinates": [ -63.6183592, 44.6446107 ] } },
{ "type": "Feature", "properties": { "Id": 180529, "Name": "Admit Canada", "Slug": "admit-canada", "Lat": 44.6517896, "Lon": -63.5741995, "Address": "1959 Upper Water Street, ", "City": "Halifax ", "State": "NS", "Zip": "B3J 3N2", "Phone": null, "Upg": "true" }, "geometry": { "type": "Point", "coordinates": [ -63.5741995, 44.6517896 ] } },
{ "type": "Feature", "properties": { "Id": 11508, "Name": "Adsum for Women & Children", "Slug": "adsum-for-women-children", "Lat": 44.6560359, "Lon": -63.5861442, "Address": "2421 Brunswick St", "City": "Halifax", "State": "NS", "Zip": "B3K 2Z4", "Phone": null, "Upg": "true" }, "geometry": { "type": "Point", "coordinates": [ -63.5861442, 44.6560359 ] } },
{ "type": "Feature", "properties": { "Id": 11223, "Name": "Advanced Systems", "Slug": "advanced-systems", "Lat": 44.6631831, "Lon": -63.6039518, "Address": "5678 Stanley St", "City": "Halifax", "State": "NS", "Zip": "B3K 2G1", "Phone": null, "Upg": "true" }, "geometry": { "type": "Point", "coordinates": [ -63.6039518, 44.6631831 ] } },
{ "type": "Feature", "properties": { "Id": 9277, "Name": "Advantage Personnel", "Slug": "advantage-personnel", "Lat": 43.6827874, "Lon": -79.6677698, "Address": "7015 Tranmere Dr", "City": "Mississauga", "State": "ON", "Zip": "L5S 1M2", "Phone": null, "Upg": "true" }, "geometry": { "type": "Point", "coordinates": [ -79.6677698, 43.6827874 ] } },
{ "type": "Feature", "properties": { "Id": 12743, "Name": "Advocate Printing & Publishing", "Slug": "advocate-printing-publishing", "Lat": 44.6609478, "Lon": -63.5967769, "Address": "2882 Gottingen St", "City": "Halifax", "State": "NS", "Zip": "B3K 3E2", "Phone": null, "Upg": "true" }, "geometry": { "type": "Point", "coordinates": [ -63.5967769, 44.6609478 ] } },
{ "type": "Feature", "properties": { "Id": 19774, "Name": "AECOM Canada Ltd.", "Slug": "aecom-canada-ltd", "Lat": 44.6473736, "Lon": -63.5724887, "Address": "PO Box 576 CRO", "City": "Halifax", "State": "NS", "Zip": "B3J 3M8", "Phone": null, "Upg": "true" }, "geometry": { "type": "Point", "coordinates": [ -63.572488699999987, 44.647373599999987 ] } },
{ "type": "Feature", "properties": { "Id": 161763, "Name": "Aerobics First", "Slug": "aerobics-first", "Lat": 44.6458079, "Lon": -63.5949043, "Address": "6166 Quinpool Road", "City": "Halifax", "State": "NS", "Zip": "B3L 1A3", "Phone": null, "Upg": "true" }, "geometry": { "type": "Point", "coordinates": [ -63.5949043, 44.6458079 ] } },
{ "type": "Feature", "properties": { "Id": 163543, "Name": "Aethera Technologies Ltd", "Slug": "aethera-technologies-ltd", "Lat": 44.6390576, "Lon": -63.6676577, "Address": "63 Crane Lake Drive", "City": "Halifax", "State": "NS", "Zip": "B3S 1B5", "Phone": null, "Upg": "true" }, "geometry": { "type": "Point", "coordinates": [ -63.6676577, 44.6390576 ] } },
{ "type": "Feature", "properties": { "Id": 178748, "Name": "African Nova Scotian Decade for People of African Descent (DPAD)", "Slug": "african-nova-scotian-decade-for-people-of-african-descent-dpad", "Lat": 44.7024854, "Lon": -63.4724431, "Address": "49 Wilfred Jackson Way", "City": "Cherry Brook", "State": "NS", "Zip": "B2Z 1A8", "Phone": null, "Upg": "true" }, "geometry": { "type": "Point", "coordinates": [ -63.4724431, 44.7024854 ] } },
{ "type": "Feature", "properties": { "Id": 20806, "Name": "Air Canada", "Slug": "air-canada-enfield", "Lat": 44.8899774, "Lon": -63.5184394, "Address": "310 Goudey Dr", "City": "Enfield", "State": "NS", "Zip": "B2T 1E4", "Phone": null, "Upg": "true" }, "geometry": { "type": "Point", "coordinates": [ -63.5184394, 44.8899774 ] } },
{ "type": "Feature", "properties": { "Id": 179745, "Name": "AKSO Marine Biotech Inc.", "Slug": "akso-marine-biotech-inc", "Lat": 44.6464826, "Lon": -63.5765328, "Address": "1697 Brunswick St", "City": "Halifax", "State": "NS", "Zip": "B3J 2G3", "Phone": null, "Upg": "true" }, "geometry": { "type": "Point", "coordinates": [ -63.5765328, 44.6464826 ] } },
{ "type": "Feature", "properties": { "Id": 180083, "Name": "Akwekon Innovation & Consulting", "Slug": "akwekon-innovation", "Lat": 44.6481405, "Lon": -63.5714612, "Address": "1715 Lower Water St", "City": "Halifax", "State": "NS", "Zip": "B3J 0J4", "Phone": null, "Upg": "true" }, "geometry": { "type": "Point", "coordinates": [ -63.5714612, 44.6481405 ] } },
{ "type": "Feature", "properties": { "Id": 9324, "Name": "Alderney Landing Community Cultural Centre", "Slug": "alderney-landing-community-cultural-centre", "Lat": 44.6644111, "Lon": -63.5701228, "Address": "PO Box 725", "City": "Dartmouth", "State": "NS", "Zip": "B2Y 3Z3", "Phone": null, "Upg": "true" }, "geometry": { "type": "Point", "coordinates": [ -63.5701228, 44.6644111 ] } },
{ "type": "Feature", "properties": { "Id": 11438, "Name": "Alderney Surveys Ltd.", "Slug": "alderney-surveys-ltd", "Lat": 44.7030422, "Lon": -63.6074662, "Address": "12 Dawn Dr.", "City": "Dartmouth", "State": "NS", "Zip": "B3B 1H9", "Phone": null, "Upg": "true" }, "geometry": { "type": "Point", "coordinates": [ -63.6074662, 44.7030422 ] } },
{ "type": "Feature", "properties": { "Id": 10977, "Name": "Alessandra Investments Limited", "Slug": "alessandra-investments-limited", "Lat": 44.6453962, "Lon": -63.5739379, "Address": "1574 Argyle St", "City": "Halifax", "State": "NS", "Zip": "B3J 2B3", "Phone": null, "Upg": "true" }, "geometry": { "type": "Point", "coordinates": [ -63.5739379, 44.6453962 ] } },
{ "type": "Feature", "properties": { "Id": 15384, "Name": "Alice House", "Slug": "alice-house", "Lat": 44.7128306, "Lon": -63.605799, "Address": "PO Box 333", "City": "Dartmouth", "State": "NS", "Zip": "B2Y 3Y5", "Phone": null, "Upg": "true" }, "geometry": { "type": "Point", "coordinates": [ -63.605799, 44.7128306 ] } },
{ "type": "Feature", "properties": { "Id": 175226, "Name": "All-Craft Renovations", "Slug": "all-craft-renovations", "Lat": 44.7168893, "Lon": -63.7158584, "Address": "1-302 Bluewater Rd", "City": "Bedford ", "State": "NS", "Zip": "B4B 1J6", "Phone": null, "Upg": "true" }, "geometry": { "type": "Point", "coordinates": [ -63.715858399999988, 44.7168893 ] } },
{ "type": "Feature", "properties": { "Id": 14432, "Name": "Allen Print", "Slug": "allen-print", "Lat": 44.7054151, "Lon": -63.6093095, "Address": "8 - 50 Akerley Blvd", "City": "Dartmouth", "State": "NS", "Zip": "B3B 1R8", "Phone": null, "Upg": "true" }, "geometry": { "type": "Point", "coordinates": [ -63.6093095, 44.7054151 ] } },
{ "type": "Feature", "properties": { "Id": 4646, "Name": "Alliance Française Halifax-Dartmouth", "Slug": "alliance-française-halifax-dartmouth-halifax", "Lat": 44.662465, "Lon": -63.59895, "Address": "5509 Young St", "City": "Halifax", "State": "NS", "Zip": "B3K 1Z7", "Phone": null, "Upg": "true" }, "geometry": { "type": "Point", "coordinates": [ -63.59895, 44.662465 ] } },
{ "type": "Feature", "properties": { "Id": 1407, "Name": "Alliance World Transport Inc.", "Slug": "alliance-world-transport-inc", "Lat": 44.7070842, "Lon": -63.6649122, "Address": "752 Bedford Hwy", "City": "Halifax", "State": "NS", "Zip": "B3M 2L9", "Phone": null, "Upg": "true" }, "geometry": { "type": "Point", "coordinates": [ -63.6649122, 44.7070842 ] } },
{ "type": "Feature", "properties": { "Id": 20555, "Name": "Allstate Insurance Company", "Slug": "allstate-insurance-company", "Lat": 44.684625, "Lon": -63.6742511, "Address": "14-117 Kearney Lake Rd", "City": "Halifax", "State": "NS", "Zip": "B3M 4N9", "Phone": null, "Upg": "true" }, "geometry": { "type": "Point", "coordinates": [ -63.6742511, 44.684625 ] } },
{ "type": "Feature", "properties": { "Id": 163397, "Name": "Allure Construction Ltd.", "Slug": "allure-construction-ltd", "Lat": 44.6728168, "Lon": -63.8242131, "Address": "196 Black Bear Circle", "City": "Lewis Lake ", "State": "NS", "Zip": "B3Z 0E3", "Phone": null, "Upg": "true" }, "geometry": { "type": "Point", "coordinates": [ -63.8242131, 44.6728168 ] } },
{ "type": "Feature", "properties": { "Id": 17130, "Name": "Alscott Air Systems Ltd.", "Slug": "alscott-air-systems-ltd", "Lat": 44.7087955, "Lon": -63.595289, "Address": "120 Joseph Zatzman Dr.", "City": "Dartmouth", "State": "NS", "Zip": "B3B 1M4", "Phone": null, "Upg": "true" }, "geometry": { "type": "Point", "coordinates": [ -63.595289, 44.7087955 ] } },
{ "type": "Feature", "properties": { "Id": 23103, "Name": "ALT Hotel Halifax Airport", "Slug": "alt-hotel-halifax-airport", "Lat": 44.8864037, "Lon": -63.516077, "Address": "40 Silver Dart Dr", "City": "Enfield", "State": "NS", "Zip": "B2T 1K2", "Phone": null, "Upg": "true" }, "geometry": { "type": "Point", "coordinates": [ -63.516077, 44.8864037 ] } },
{ "type": "Feature", "properties": { "Id": 16547, "Name": "Alternative Financing Options", "Slug": "alternative-financing-options", "Lat": 44.7283354, "Lon": -63.6615532, "Address": "591 Shore Dr", "City": "Bedford", "State": "NS", "Zip": "B4A 2C9", "Phone": null, "Upg": "true" }, "geometry": { "type": "Point", "coordinates": [ -63.6615532, 44.7283354 ] } },
{ "type": "Feature", "properties": { "Id": 16095, "Name": "Always Home Homecare Services Ltd", "Slug": "always-home-homecare-services-ltd", "Lat": 44.6553456, "Lon": -63.6003647, "Address": "6136 Almon Street", "City": "Halifax", "State": "NS", "Zip": "B3K 1T8", "Phone": null, "Upg": "true" }, "geometry": { "type": "Point", "coordinates": [ -63.6003647, 44.6553456 ] } },
{ "type": "Feature", "properties": { "Id": 14199, "Name": "Alzheimer Society of Nova Scotia", "Slug": "alzheimer-society-of-nova-scotia", "Lat": 44.6551128, "Lon": -63.5993118, "Address": "2719 Gladstone St", "City": "Halifax", "State": "NS", "Zip": "B3K 4W6", "Phone": null, "Upg": "true" }, "geometry": { "type": "Point", "coordinates": [ -63.5993118, 44.6551128 ] } },
{ "type": "Feature", "properties": { "Id": 5862, "Name": "Ambassatours Gray Line", "Slug": "ambassatours-gray-line", "Lat": 44.6636948, "Lon": -63.62431, "Address": "6575 Bayne St", "City": "Halifax", "State": "NS", "Zip": "B3K 2V6", "Phone": null, "Upg": "true" }, "geometry": { "type": "Point", "coordinates": [ -63.62431, 44.6636948 ] } },
{ "type": "Feature", "properties": { "Id": 162054, "Name": "Amos Pewter", "Slug": "amos-pewter-mahone-bay", "Lat": 44.4489151, "Lon": -64.3786614, "Address": "589 Main St", "City": "Mahone Bay", "State": "NS", "Zip": "B0J 2E0", "Phone": null, "Upg": "true" }, "geometry": { "type": "Point", "coordinates": [ -64.3786614, 44.4489151 ] } },
{ "type": "Feature", "properties": { "Id": 32011, "Name": "Anchored Coffee Inc", "Slug": "anchored-coffee-inc", "Lat": 44.6669742, "Lon": -63.5676196, "Address": "70 Octerloney St.", "City": "Dartmouth", "State": "NS", "Zip": "B2Y 1C2", "Phone": null, "Upg": "true" }, "geometry": { "type": "Point", "coordinates": [ -63.5676196, 44.6669742 ] } },
{ "type": "Feature", "properties": { "Id": 10278, "Name": "Andrew J. Miller Inc.", "Slug": "andrew-j-miller-inc", "Lat": 44.642581, "Lon": -63.6207078, "Address": "2625 Joseph Howe Dr", "City": "Halifax", "State": "NS", "Zip": "B3L 4G4", "Phone": null, "Upg": "true" }, "geometry": { "type": "Point", "coordinates": [ -63.6207078, 44.642581 ] } },
{ "type": "Feature", "properties": { "Id": 177135, "Name": "Andy Fillmore Member of Parliament for Halifax", "Slug": "andy-fillmore-member-of-parliament-for-halifax", "Lat": 44.6493346, "Lon": -63.5785066, "Address": "1888 Brunswick Street", "City": "Halifax", "State": "NS", "Zip": "B3J 3J8", "Phone": null, "Upg": "true" }, "geometry": { "type": "Point", "coordinates": [ -63.5785066, 44.6493346 ] } },
{ "type": "Feature", "properties": { "Id": 1492, "Name": "Anicom Signs, Inc.", "Slug": "anicom-signs-inc", "Lat": 44.7091076, "Lon": -63.5959238, "Address": "134 Joseph Zatzman Dr", "City": "Dartmouth", "State": "NS", "Zip": "B3B 1M4", "Phone": null, "Upg": "true" }, "geometry": { "type": "Point", "coordinates": [ -63.5959238, 44.7091076 ] } },
{ "type": "Feature", "properties": { "Id": 14867, "Name": "Answer 365", "Slug": "answer-365", "Lat": 44.6586486, "Lon": -63.5981064, "Address": "2829 Agricola St", "City": "Halifax", "State": "NS", "Zip": "B3K 4E5", "Phone": null, "Upg": "true" }, "geometry": { "type": "Point", "coordinates": [ -63.5981064, 44.6586486 ] } },
{ "type": "Feature", "properties": { "Id": 177052, "Name": "Anything Fitness", "Slug": "anything-fitness-dartmouth", "Lat": 44.6747127, "Lon": -63.5855037, "Address": "223 Wyse Rd", "City": "Dartmouth", "State": "NS", "Zip": "B3A 1N1", "Phone": null, "Upg": "true" }, "geometry": { "type": "Point", "coordinates": [ -63.5855037, 44.6747127 ] } },
{ "type": "Feature", "properties": { "Id": 3692, "Name": "Aon Reed Stenhouse Inc.", "Slug": "aon-reed-stenhouse-inc", "Lat": 44.6525077, "Lon": -63.5745278, "Address": "1001-1969 Upper Water St", "City": "Halifax", "State": "NS", "Zip": "B3J 3R7", "Phone": null, "Upg": "true" }, "geometry": { "type": "Point", "coordinates": [ -63.5745278, 44.6525077 ] } },
{ "type": "Feature", "properties": { "Id": 180606, "Name": "Apex Language and Career College", "Slug": "apex-language-and-career-college", "Lat": 44.6432432, "Lon": -63.5783192, "Address": "1526 Dresden Row", "City": "Halifax", "State": "NS", "Zip": "B3J 3K3", "Phone": null, "Upg": "true" }, "geometry": { "type": "Point", "coordinates": [ -63.5783192, 44.6432432 ] } },
{ "type": "Feature", "properties": { "Id": 161626, "Name": "Appili Therapeutics Inc.", "Slug": "appili-therapeutics-inc", "Lat": 44.6397731, "Lon": -63.5831423, "Address": "1344 Summer St", "City": "Halifax", "State": "NS", "Zip": "B3H 0A8", "Phone": null, "Upg": "true" }, "geometry": { "type": "Point", "coordinates": [ -63.5831423, 44.6397731 ] } },
{ "type": "Feature", "properties": { "Id": 174936, "Name": "Aptitude Digital", "Slug": "aptitude-digital", "Lat": 44.6839994, "Lon": -63.6602926, "Address": "397 Bedford Hwy", "City": "Halifax", "State": "NS", "Zip": "B3M 2L3", "Phone": null, "Upg": "true" }, "geometry": { "type": "Point", "coordinates": [ -63.6602926, 44.6839994 ] } },
{ "type": "Feature", "properties": { "Id": 179852, "Name": "Aquaculture Association of Nova Scotia", "Slug": "aquaculture-association-of-nova-scotia-halifax-902-422-6234", "Lat": 44.6533259, "Lon": -63.6085955, "Address": "2960 Oxford St", "City": "Halifax", "State": "NS", "Zip": "B3L 2W4", "Phone": null, "Upg": "true" }, "geometry": { "type": "Point", "coordinates": [ -63.6085955, 44.6533259 ] } },
{ "type": "Feature", "properties": { "Id": 176570, "Name": "Aqualitas Inc.", "Slug": "aqualitas-inc", "Lat": 44.7321386, "Lon": -63.6575831, "Address": "310-1550 Bedford Highway", "City": "Bedford", "State": "NS", "Zip": "B4A 1E6", "Phone": null, "Upg": "true" }, "geometry": { "type": "Point", "coordinates": [ -63.657583099999989, 44.7321386 ] } },
{ "type": "Feature", "properties": { "Id": 1288, "Name": "AR Webber Properties Limited", "Slug": "ar-webber-properties-limited", "Lat": 44.6368506, "Lon": -63.5727242, "Address": "1083 Queen St", "City": "Halifax", "State": "NS", "Zip": "B3H 0B2", "Phone": null, "Upg": "true" }, "geometry": { "type": "Point", "coordinates": [ -63.5727242, 44.6368506 ] } },
{ "type": "Feature", "properties": { "Id": 179325, "Name": "Arbour Wealth Inc", "Slug": "arbour-wealth-inc", "Lat": 44.7239923, "Lon": -63.7374485, "Address": "1 Kingswood Dr", "City": "Hammonds Plains", "State": "NS", "Zip": "B4B 0P4", "Phone": null, "Upg": "true" }, "geometry": { "type": "Point", "coordinates": [ -63.7374485, 44.7239923 ] } },
{ "type": "Feature", "properties": { "Id": 180128, "Name": "Arbuckle Media", "Slug": "arbuckle-media-halifax", "Lat": 44.6473148, "Lon": -63.5723689, "Address": "1701 Hollis Street", "City": "Halifax", "State": "NS", "Zip": "B3J 2T9", "Phone": null, "Upg": "true" }, "geometry": { "type": "Point", "coordinates": [ -63.5723689, 44.6473148 ] } },
{ "type": "Feature", "properties": { "Id": 8688, "Name": "Ariva", "Slug": "ariva", "Lat": 44.7143339, "Lon": -63.5946571, "Address": "105 Akerley Blvd", "City": "Dartmouth", "State": "NS", "Zip": "B3B 1R7", "Phone": null, "Upg": "true" }, "geometry": { "type": "Point", "coordinates": [ -63.5946571, 44.7143339 ] } },
{ "type": "Feature", "properties": { "Id": 17634, "Name": "Armament Technology Incorporated", "Slug": "armament-technology-incorporated", "Lat": 44.6474939, "Lon": -63.6695159, "Address": "60A Otter Lake Crt", "City": "Halifax", "State": "NS", "Zip": "B3S 1L9", "Phone": null, "Upg": "true" }, "geometry": { "type": "Point", "coordinates": [ -63.6695159, 44.6474939 ] } },
{ "type": "Feature", "properties": { "Id": 13778, "Name": "Armbrae Academy", "Slug": "armbrae-academy", "Lat": 44.6362378, "Lon": -63.5965772, "Address": "1400 Oxford St", "City": "Halifax", "State": "NS", "Zip": "B3H 3Y8", "Phone": null, "Upg": "true" }, "geometry": { "type": "Point", "coordinates": [ -63.5965772, 44.6362378 ] } },
{ "type": "Feature", "properties": { "Id": 24738, "Name": "Armdale Yacht Club", "Slug": "armdale-yacht-club", "Lat": 44.6356934, "Lon": -63.6135472, "Address": "75 Burgee Run", "City": "Halifax", "State": "NS", "Zip": "B3P 0C9", "Phone": null, "Upg": "true" }, "geometry": { "type": "Point", "coordinates": [ -63.6135472, 44.6356934 ] } },
{ "type": "Feature", "properties": { "Id": 1683, "Name": "Armitage Hardware Co. Ltd.", "Slug": "armitage-hardware-co-ltd", "Lat": 44.6555258, "Lon": -63.6014167, "Address": "PO Box 9164, Station A", "City": "Halifax", "State": "NS", "Zip": "B3K 5L8", "Phone": null, "Upg": "true" }, "geometry": { "type": "Point", "coordinates": [ -63.6014167, 44.6555258 ] } },
{ "type": "Feature", "properties": { "Id": 161666, "Name": "Arrivals + Departures", "Slug": "arrivals-departures", "Lat": 44.6505058, "Lon": -63.5728093, "Address": "1875 Upper Water Street", "City": "Halifax", "State": "NS", "Zip": "B3J 1S9", "Phone": null, "Upg": "true" }, "geometry": { "type": "Point", "coordinates": [ -63.5728093, 44.6505058 ] } },
{ "type": "Feature", "properties": { "Id": 11575, "Name": "Arrow Electronics Inc.", "Slug": "arrow-electronics-inc", "Lat": 44.6440159, "Lon": -63.6645715, "Address": "155 Chain Lake Dr", "City": "Halifax", "State": "NS", "Zip": "B3S 1B3", "Phone": null, "Upg": "true" }, "geometry": { "type": "Point", "coordinates": [ -63.6645715, 44.6440159 ] } },
{ "type": "Feature", "properties": { "Id": 1687, "Name": "Art Gallery of Nova Scotia", "Slug": "art-gallery-of-nova-scotia", "Lat": 44.6482488, "Lon": -63.5727817, "Address": "1723 Hollis St", "City": "Halifax", "State": "NS", "Zip": "B3J 3C8", "Phone": null, "Upg": "true" }, "geometry": { "type": "Point", "coordinates": [ -63.5727817, 44.6482488 ] } },
{ "type": "Feature", "properties": { "Id": 12330, "Name": "Arthritis Society Canada", "Slug": "arthritis-society-canada", "Lat": 44.6627085, "Lon": -63.6192026, "Address": "3700 Kempt Rd", "City": "Halifax", "State": "NS", "Zip": "B3K 4X8", "Phone": null, "Upg": "true" }, "geometry": { "type": "Point", "coordinates": [ -63.6192026, 44.6627085 ] } },
{ "type": "Feature", "properties": { "Id": 1737, "Name": "Arthur J. Gallagher Canada Limited", "Slug": "arthur-j-gallagher-canada-limited", "Lat": 44.6639675, "Lon": -63.6181078, "Address": "6380 Lady Hammond Rd", "City": "Halifax", "State": "NS", "Zip": "B3K2S3", "Phone": null, "Upg": "true" }, "geometry": { "type": "Point", "coordinates": [ -63.6181078, 44.6639675 ] } },
{ "type": "Feature", "properties": { "Id": 179296, "Name": "Arthur's Urban Market", "Slug": "arthur-s-urban-market", "Lat": 44.6463903, "Lon": -63.5720655, "Address": "1591 Hollis St", "City": "Halifax", "State": "NS", "Zip": "B3J 0G9", "Phone": null, "Upg": "true" }, "geometry": { "type": "Point", "coordinates": [ -63.572065499999987, 44.6463903 ] } },
{ "type": "Feature", "properties": { "Id": 180602, "Name": "Ascend LLP Chartered Professional Accountants", "Slug": "ascend-llp-chartered-professional-accountants", "Lat": 44.6694572, "Lon": -63.5382034, "Address": "530 Portland Street", "City": "Dartmouth", "State": "NS", "Zip": "B2Y 4V6", "Phone": null, "Upg": "true" }, "geometry": { "type": "Point", "coordinates": [ -63.5382034, 44.6694572 ] } },
{ "type": "Feature", "properties": { "Id": 10546, "Name": "Ashburn Golf Club", "Slug": "ashburn-golf-club", "Lat": 44.6537997, "Lon": -63.6278852, "Address": "PO Box 22038", "City": "Halifax", "State": "NS", "Zip": "B3L 4T7", "Phone": null, "Upg": "true" }, "geometry": { "type": "Point", "coordinates": [ -63.627885199999987, 44.6537997 ] } },
{ "type": "Feature", "properties": { "Id": 179197, "Name": "ASM Courier Services Ltd", "Slug": "asm-courier-services-ltd", "Lat": 44.6575531, "Lon": -63.5407396, "Address": "61 Mount Hope Ave", "City": "Dartmouth", "State": "NS", "Zip": "B2Y4V9", "Phone": null, "Upg": "true" }, "geometry": { "type": "Point", "coordinates": [ -63.5407396, 44.6575531 ] } },
{ "type": "Feature", "properties": { "Id": 178833, "Name": "Aspen Films", "Slug": "aspen-films-halifax", "Lat": 53.2036112, "Lon": -105.7548748, "Address": "1701 Hollis Street", "City": "Halifax", "State": "NS", "Zip": "B3J 3M8", "Phone": null, "Upg": "true" }, "geometry": { "type": "Point", "coordinates": [ -105.7548748, 53.2036112 ] } },
{ "type": "Feature", "properties": { "Id": 163547, "Name": "Assante Hydrostone", "Slug": "assante-hydrostone-halifax", "Lat": 44.6616219, "Lon": -63.5992188, "Address": "5548 Kaye Street, Suite 201", "City": "Halifax", "State": "NS", "Zip": "B3K 1Y5", "Phone": null, "Upg": "true" }, "geometry": { "type": "Point", "coordinates": [ -63.5992188, 44.6616219 ] } },
{ "type": "Feature", "properties": { "Id": 22646, "Name": "Associated Cargo Specialists", "Slug": "associated-cargo-specialists", "Lat": 44.7320648, "Lon": -63.6551465, "Address": "1595 Bedford Highway", "City": "Halifax", "State": "NS", "Zip": "B4A 3Y4", "Phone": null, "Upg": "true" }, "geometry": { "type": "Point", "coordinates": [ -63.655146499999987, 44.7320648 ] } },
{ "type": "Feature", "properties": { "Id": 11321, "Name": "Association of Atlantic Universities", "Slug": "association-of-atlantic-universities", "Lat": 44.6428289, "Lon": -63.5785038, "Address": "5657 Spring Garden Rd", "City": "Halifax", "State": "NS", "Zip": "B3J 3R4", "Phone": null, "Upg": "true" }, "geometry": { "type": "Point", "coordinates": [ -63.5785038, 44.6428289 ] } },
{ "type": "Feature", "properties": { "Id": 18443, "Name": "Association of Psychologists of Nova Scotia", "Slug": "association-of-psychologists-of-nova-scotia-halifax", "Lat": 44.6412537, "Lon": -63.5868239, "Address": "5991 Spring Garden Road", "City": "Halifax", "State": "NS", "Zip": "B3H 1Y6", "Phone": null, "Upg": "true" }, "geometry": { "type": "Point", "coordinates": [ -63.5868239, 44.6412537 ] } },
{ "type": "Feature", "properties": { "Id": 16948, "Name": "Association of Workplace Educators of Nova Scotia (AWENS)", "Slug": "association-of-workplace-educators-of-nova-scotia-awens", "Lat": 44.6585076, "Lon": -63.5981826, "Address": "2830 Agricola St", "City": "Halifax", "State": "NS", "Zip": "B3K 4E4", "Phone": null, "Upg": "true" }, "geometry": { "type": "Point", "coordinates": [ -63.5981826, 44.6585076 ] } },
{ "type": "Feature", "properties": { "Id": 17806, "Name": "Association Solutions Ltd.", "Slug": "association-solutions-ltd", "Lat": 44.6555258, "Lon": -63.6014167, "Address": "PO Box 9405", "City": "Halifax", "State": "NS", "Zip": "B3K 5S3", "Phone": null, "Upg": "true" }, "geometry": { "type": "Point", "coordinates": [ -63.6014167, 44.6555258 ] } },
{ "type": "Feature", "properties": { "Id": 176717, "Name": "Atlantic Canada Business Network (Nova Scotia)", "Slug": "atlantic-canada-business-network-nova-scotia", "Lat": 44.7316994, "Lon": -63.6595475, "Address": "1496 Bedford Highway", "City": "Bedford", "State": "NS", "Zip": "B4A 1E4", "Phone": null, "Upg": "true" }, "geometry": { "type": "Point", "coordinates": [ -63.6595475, 44.7316994 ] } },
{ "type": "Feature", "properties": { "Id": 13782, "Name": "Atlantic Central", "Slug": "atlantic-central", "Lat": 44.6650269, "Lon": -63.6128937, "Address": "6074 Lady Hammond Rd", "City": "Halifax", "State": "NS", "Zip": "B3K 2R7", "Phone": null, "Upg": "true" }, "geometry": { "type": "Point", "coordinates": [ -63.6128937, 44.6650269 ] } },
{ "type": "Feature", "properties": { "Id": 32453, "Name": "Atlantic Chamber of Commerce", "Slug": "atlantic-chamber-of-commerce", "Lat": 44.6819866, "Lon": -63.744311, "Address": null, "City": null, "State": "Nova Scotia ", "Zip": null, "Phone": null, "Upg": "true" }, "geometry": { "type": "Point", "coordinates": [ -63.744311, 44.681986599999988 ] } },
{ "type": "Feature", "properties": { "Id": 16566, "Name": "Atlantic Council for International Cooperation", "Slug": "atlantic-council-for-international-cooperation", "Lat": 44.6518989, "Lon": -63.5828788, "Address": "2099 Gottingen St", "City": "Halifax", "State": "NS", "Zip": "B3K 3B2", "Phone": null, "Upg": "true" }, "geometry": { "type": "Point", "coordinates": [ -63.5828788, 44.6518989 ] } },
{ "type": "Feature", "properties": { "Id": 21824, "Name": "Atlantic Developments Inc.", "Slug": "atlantic-developments-inc", "Lat": 44.6518934, "Lon": -63.5834384, "Address": "2114 Gottingen Street", "City": "Halifax", "State": "NS", "Zip": "B3K 0C5 ", "Phone": null, "Upg": "true" }, "geometry": { "type": "Point", "coordinates": [ -63.5834384, 44.6518934 ] } },
{ "type": "Feature", "properties": { "Id": 79, "Name": "Atlantic Hardchrome Limited", "Slug": "atlantic-hardchrome-limited", "Lat": 44.7092035, "Lon": -63.6010437, "Address": "5 Notting Crt", "City": "Dartmouth", "State": "NS", "Zip": "B3B 1N2", "Phone": null, "Upg": "true" }, "geometry": { "type": "Point", "coordinates": [ -63.6010437, 44.7092035 ] } },
{ "type": "Feature", "properties": { "Id": 10369, "Name": "Atlantic Institute for Market Studies", "Slug": "atlantic-institute-for-market-studies", "Lat": 44.66423, "Lon": -63.648371, "Address": "Park West Centre", "City": "Halifax", "State": "NS", "Zip": "B3M 3Y7", "Phone": null, "Upg": "true" }, "geometry": { "type": "Point", "coordinates": [ -63.648371, 44.66423 ] } },
{ "type": "Feature", "properties": { "Id": 244, "Name": "Atlantic Lottery Corporation", "Slug": "atlantic-lottery-corporation", "Lat": 44.6467926, "Lon": -63.5747647, "Address": "1680 Argyle St", "City": "Halifax", "State": "NS", "Zip": "B3J 0G2", "Phone": null, "Upg": "true" }, "geometry": { "type": "Point", "coordinates": [ -63.5747647, 44.6467926 ] } },
{ "type": "Feature", "properties": { "Id": 22867, "Name": "Atlantic Massage Therapy Clinic Inc.", "Slug": "atlantic-massage-therapy-clinic-inc", "Lat": 44.7654691, "Lon": -63.6790226, "Address": "3-453 Sackville Dr", "City": "Lower Sackville", "State": "NS", "Zip": "B4C 2S1", "Phone": null, "Upg": "true" }, "geometry": { "type": "Point", "coordinates": [ -63.6790226, 44.7654691 ] } },
{ "type": "Feature", "properties": { "Id": 178710, "Name": "Atlantic Montessori School", "Slug": "atlantic-montessori-school-halifax", "Lat": 44.6672744, "Lon": -63.6386264, "Address": "102-182 Bedford Highway", "City": "Halifax", "State": "NS", "Zip": "B3M 0A4", "Phone": null, "Upg": "true" }, "geometry": { "type": "Point", "coordinates": [ -63.6386264, 44.6672744 ] } },
{ "type": "Feature", "properties": { "Id": 180485, "Name": "Atlantic Publishers Marketing Association", "Slug": "atlantic-publishers-marketing-association", "Lat": 44.6493346, "Lon": -63.5785066, "Address": "1888 Brunswick Street", "City": "Halifax", "State": "NS", "Zip": "B3J 3J8", "Phone": null, "Upg": "true" }, "geometry": { "type": "Point", "coordinates": [ -63.5785066, 44.6493346 ] } },
{ "type": "Feature", "properties": { "Id": 24410, "Name": "Atlantic Road Construction and Paving Limited (ARCP)", "Slug": "atlantic-road-construction-and-paving-limited-arcp", "Lat": 44.6256743, "Lon": -63.4646763, "Address": "P.O. Box 89", "City": "Eastern Passage", "State": "NS", "Zip": "B3G 1M7", "Phone": null, "Upg": "true" }, "geometry": { "type": "Point", "coordinates": [ -63.4646763, 44.6256743 ] } },
{ "type": "Feature", "properties": { "Id": 17894, "Name": "Atlantic RV/Book Exchange", "Slug": "atlantic-rv-exchange", "Lat": 44.7786096, "Lon": -63.0794671, "Address": "9220 Highway 7", "City": "Head of Jeddore", "State": "NS", "Zip": "B0J 1P0", "Phone": null, "Upg": "true" }, "geometry": { "type": "Point", "coordinates": [ -63.0794671, 44.7786096 ] } },
{ "type": "Feature", "properties": { "Id": 44750, "Name": "Atlantic School of Theology", "Slug": "atlantic-school-of-theology", "Lat": 44.6268149, "Lon": -63.5804793, "Address": "660 Francklyn Street", "City": "Halifax County", "State": "NS", "Zip": "B3H 3B5", "Phone": null, "Upg": "true" }, "geometry": { "type": "Point", "coordinates": [ -63.5804793, 44.6268149 ] } },
{ "type": "Feature", "properties": { "Id": 176947, "Name": "Atlantic Splash Adventure", "Slug": "atlantic-splash-adventure-lucasville", "Lat": 44.7414147, "Lon": -63.7473114, "Address": "1200 Lucasville Road", "City": "Lucasville", "State": "NS", "Zip": "B4B 1P7", "Phone": null, "Upg": "true" }, "geometry": { "type": "Point", "coordinates": [ -63.7473114, 44.7414147 ] } },
{ "type": "Feature", "properties": { "Id": 180156, "Name": "Atlantic Tours Limited", "Slug": "atlantic-tours-limited", "Lat": 44.6889484, "Lon": -63.5971647, "Address": "22 Waddell Ave", "City": "Dartmouth", "State": "NS", "Zip": "B3B 1K3", "Phone": null, "Upg": "true" }, "geometry": { "type": "Point", "coordinates": [ -63.5971647, 44.6889484 ] } },
{ "type": "Feature", "properties": { "Id": 10316, "Name": "Atlantic University Sport", "Slug": "atlantic-university-sport", "Lat": 44.6428289, "Lon": -63.5785038, "Address": "5657 Spring Garden Rd", "City": "Halifax", "State": "NS", "Zip": "B3J 3R4", "Phone": null, "Upg": "true" }, "geometry": { "type": "Point", "coordinates": [ -63.5785038, 44.6428289 ] } },
{ "type": "Feature", "properties": { "Id": 16282, "Name": "Atlantica Hotel Halifax", "Slug": "atlantica-hotel-halifax", "Lat": 44.6471501, "Lon": -63.5905265, "Address": "1980 Robie St", "City": "Halifax", "State": "NS", "Zip": "B3H 3G5", "Phone": null, "Upg": "true" }, "geometry": { "type": "Point", "coordinates": [ -63.5905265, 44.6471501 ] } },
{ "type": "Feature", "properties": { "Id": 8281, "Name": "Atship Services Limited", "Slug": "atship-services-limited", "Lat": 44.761396, "Lon": -63.6556002, "Address": "294 Cobequid Rd", "City": "Sackville", "State": "NS", "Zip": "B4C 4C5", "Phone": null, "Upg": "true" }, "geometry": { "type": "Point", "coordinates": [ -63.6556002, 44.761396 ] } },
{ "type": "Feature", "properties": { "Id": 180043, "Name": "Attune Counselling Therapy and Music Psychotherapy", "Slug": "attune-counselling-therapy-and-music-psychotherapy", "Lat": 44.667365, "Lon": -63.5681771, "Address": "47 Wentworth St", "City": "Dartmouth", "State": "NS", "Zip": "B2Y 2T1", "Phone": null, "Upg": "true" }, "geometry": { "type": "Point", "coordinates": [ -63.5681771, 44.667365 ] } },
{ "type": "Feature", "properties": { "Id": 15372, "Name": "Autism Nova Scotia", "Slug": "autism-nova-scotia", "Lat": 44.6423181, "Lon": -63.5797653, "Address": "5945 Spring Garden Rd", "City": "Halifax", "State": "NS", "Zip": "B3J 2K7", "Phone": null, "Upg": "true" }, "geometry": { "type": "Point", "coordinates": [ -63.5797653, 44.6423181 ] } },
{ "type": "Feature", "properties": { "Id": 366, "Name": "Avis Budget Group", "Slug": "avis-budget-group", "Lat": 44.8866047, "Lon": -63.5188706, "Address": "1031 Bell Blvd", "City": "Goffs", "State": "NS", "Zip": "B2T 0C1", "Phone": null, "Upg": "true" }, "geometry": { "type": "Point", "coordinates": [ -63.5188706, 44.8866047 ] } },
{ "type": "Feature", "properties": { "Id": 160108, "Name": "Avison Young", "Slug": "avison-young-halifax", "Lat": 44.6472262, "Lon": -63.5715574, "Address": "1657 Bedford Row", "City": "Halifax", "State": "NS", "Zip": "B3J 1T1", "Phone": null, "Upg": "true" }, "geometry": { "type": "Point", "coordinates": [ -63.5715574, 44.6472262 ] } },
{ "type": "Feature", "properties": { "Id": 16544, "Name": "AW Dean Contracting & Landscaping Ltd.", "Slug": "aw-dean-contracting-landscaping-ltd", "Lat": 44.7360536, "Lon": -63.7929941, "Address": "20 Pockwock Rd", "City": "Hammonds Plains", "State": "NS", "Zip": "B4B 1M5", "Phone": null, "Upg": "true" }, "geometry": { "type": "Point", "coordinates": [ -63.7929941, 44.7360536 ] } },
{ "type": "Feature", "properties": { "Id": 179314, "Name": "Axem Neurotechnology Inc.", "Slug": "axem-neurotechnology-inc-halifax", "Lat": 44.6444057, "Lon": -63.5719269, "Address": "1505 Barrington St", "City": "Halifax", "State": "NS", "Zip": "B3J 3K5", "Phone": null, "Upg": "true" }, "geometry": { "type": "Point", "coordinates": [ -63.5719269, 44.6444057 ] } },
{ "type": "Feature", "properties": { "Id": 179755, "Name": "Axis Specialty Canada Services, ULC ", "Slug": "axis-specialty-canada-services-ulc", "Lat": 44.6462272, "Lon": -63.574737, "Address": "1625 Grafton Street, Suite 900", "City": "Halifax", "State": "NS", "Zip": "B3J 0E8", "Phone": null, "Upg": "true" }, "geometry": { "type": "Point", "coordinates": [ -63.574737, 44.6462272 ] } },
{ "type": "Feature", "properties": { "Id": 16254, "Name": "Azorus Inc.", "Slug": "azorus-inc", "Lat": 44.7294143, "Lon": -63.6556458, "Address": "15 Dartmouth Rd", "City": "Bedford", "State": "NS", "Zip": "B4A 3X6", "Phone": null, "Upg": "true" }, "geometry": { "type": "Point", "coordinates": [ -63.6556458, 44.7294143 ] } },
{ "type": "Feature", "properties": { "Id": 179860, "Name": "B'Spoke Apparel", "Slug": "b-spoke-apparel", "Lat": 44.6386218, "Lon": -63.6646452, "Address": "35 Ash Lake Court ", "City": "Halifax", "State": "NS", "Zip": "B3S1B7", "Phone": null, "Upg": "true" }, "geometry": { "type": "Point", "coordinates": [ -63.6646452, 44.6386218 ] } },
{ "type": "Feature", "properties": { "Id": 161496, "Name": "Backman Vidcom", "Slug": "backman-vidcom", "Lat": 44.6370769, "Lon": -63.6647963, "Address": "110 Chain Lake Dr, Unit 3F", "City": "Halifax", "State": "NS", "Zip": "B3S 1A9", "Phone": null, "Upg": "true" }, "geometry": { "type": "Point", "coordinates": [ -63.6647963, 44.6370769 ] } },
{ "type": "Feature", "properties": { "Id": 6441, "Name": "Bailey and Associates", "Slug": "bailey-and-associates", "Lat": 44.6650908, "Lon": -63.5670301, "Address": "42-46 Portland St", "City": "Dartmouth", "State": "NS", "Zip": "B2Y 1H4", "Phone": null, "Upg": "true" }, "geometry": { "type": "Point", "coordinates": [ -63.5670301, 44.6650908 ] } },
{ "type": "Feature", "properties": { "Id": 81, "Name": "Baker Tilly NS Inc", "Slug": "baker-tilly-ns-inc", "Lat": 44.6950244, "Lon": -63.5720658, "Address": "130 Eileen Stubbs Ave", "City": "Dartmouth", "State": "NS", "Zip": "B3B 1Y1", "Phone": null, "Upg": "true" }, "geometry": { "type": "Point", "coordinates": [ -63.5720658, 44.6950244 ] } },
{ "type": "Feature", "properties": { "Id": 7063, "Name": "Bank of Canada", "Slug": "bank-of-canada", "Lat": 44.6472997, "Lon": -63.572433, "Address": "1701 Hollis St", "City": "Halifax", "State": "NS", "Zip": "B3J 3M8", "Phone": null, "Upg": "true" }, "geometry": { "type": "Point", "coordinates": [ -63.572433, 44.6472997 ] } },
{ "type": "Feature", "properties": { "Id": 6444, "Name": "Barbados Tourism Marketing Inc.", "Slug": "barbados-tourism-marketing-inc", "Lat": 44.6348427, "Lon": -63.420279, "Address": "1929 Cow Bay Rd", "City": "Cow Bay", "State": "NS", "Zip": "B3G 1K6", "Phone": null, "Upg": "true" }, "geometry": { "type": "Point", "coordinates": [ -63.420279, 44.6348427 ] } },
{ "type": "Feature", "properties": { "Id": 175160, "Name": "Barteaux Labour and Employment Lawyers Inc.", "Slug": "barteaux-labour-and-employment-lawyers-inc", "Lat": 44.6473484, "Lon": -63.5724652, "Address": "1701 Hollis Street, Suite L106", "City": "Halifax", "State": "NS", "Zip": "B3J 3M8", "Phone": null, "Upg": "true" }, "geometry": { "type": "Point", "coordinates": [ -63.5724652, 44.6473484 ] } },
{ "type": "Feature", "properties": { "Id": 44646, "Name": "Barter Atlantic", "Slug": "barter-atlantic", "Lat": 44.7002211, "Lon": -63.6019649, "Address": "21 McCurdy Ave", "City": "Dartmouth", "State": "NS", "Zip": "B3B 1C4", "Phone": null, "Upg": "true" }, "geometry": { "type": "Point", "coordinates": [ -63.6019649, 44.7002211 ] } },
{ "type": "Feature", "properties": { "Id": 11834, "Name": "Basebridge.com Limited", "Slug": "basebridge-com-limited-halifax", "Lat": 44.6516687, "Lon": -63.5744122, "Address": "1959 Upper Water St", "City": "Halifax", "State": "NS", "Zip": "B3J 3N2", "Phone": null, "Upg": "true" }, "geometry": { "type": "Point", "coordinates": [ -63.5744122, 44.6516687 ] } },
{ "type": "Feature", "properties": { "Id": 5516, "Name": "Basil Audio-Visual Inc.", "Slug": "basil-audio-visual-inc", "Lat": 44.6990683, "Lon": -63.5793698, "Address": "116-50 Eileen Stubbs Ave", "City": "Dartmouth", "State": "NS", "Zip": "B3B 0M7", "Phone": null, "Upg": "true" }, "geometry": { "type": "Point", "coordinates": [ -63.5793698, 44.6990683 ] } },
{ "type": "Feature", "properties": { "Id": 7966, "Name": "Bauld Insurance", "Slug": "bauld-insurance", "Lat": 44.7125879, "Lon": -63.6753213, "Address": "7 Peruz Court", "City": "Bedford", "State": "NS", "Zip": "B4A 4G2", "Phone": null, "Upg": "true" }, "geometry": { "type": "Point", "coordinates": [ -63.6753213, 44.7125879 ] } },
{ "type": "Feature", "properties": { "Id": 161719, "Name": "Bayers Road Family Dental Centre", "Slug": "bayers-road-family-dental-centre", "Lat": 44.6558793, "Lon": -63.6258569, "Address": "#271-7071 Bayers Rd", "City": "Halifax", "State": "NS", "Zip": "B3L 2C2", "Phone": null, "Upg": "true" }, "geometry": { "type": "Point", "coordinates": [ -63.6258569, 44.6558793 ] } },
{ "type": "Feature", "properties": { "Id": 176406, "Name": "Bayers Westwood Family Resource Centre", "Slug": "bayers-westwood-family-resource-centre", "Lat": 44.6578883, "Lon": -63.6214058, "Address": "3499 McApline Ave", "City": "Halifax", "State": "NS", "Zip": "B3L 3X9", "Phone": null, "Upg": "true" }, "geometry": { "type": "Point", "coordinates": [ -63.621405800000012, 44.6578883 ] } },
{ "type": "Feature", "properties": { "Id": 11415, "Name": "Bayshore Home Health", "Slug": "bayshore-home-health-halifax", "Lat": 44.6558793, "Lon": -63.6258569, "Address": "7071 Bayers Road", "City": "Halifax", "State": "NS", "Zip": "B3L 2C2", "Phone": null, "Upg": "true" }, "geometry": { "type": "Point", "coordinates": [ -63.6258569, 44.6558793 ] } },
{ "type": "Feature", "properties": { "Id": 15029, "Name": "BDO Canada LLP", "Slug": "bdo-canada", "Lat": 44.6635748, "Lon": -63.6543526, "Address": "201-255 Lacewood Dr", "City": "Halifax", "State": "NS", "Zip": "B3M 4G2", "Phone": null, "Upg": "true" }, "geometry": { "type": "Point", "coordinates": [ -63.6543526, 44.6635748 ] } },
{ "type": "Feature", "properties": { "Id": 45694, "Name": "Beaumont & Co.", "Slug": "beaumont-co", "Lat": 44.702878328627428, "Lon": -63.58950959391791, "Address": "60 Raddall Ave", "City": "Dartmouth", "State": "NS", "Zip": "B3B 1T2", "Phone": null, "Upg": "true" }, "geometry": { "type": "Point", "coordinates": [ -63.58950959391791, 44.702878328627428 ] } },
{ "type": "Feature", "properties": { "Id": 22134, "Name": "Beaumont Advisors Limited", "Slug": "beaumont-advisors-limited", "Lat": 44.6517896, "Lon": -63.5741994, "Address": "Purdy's Wharf Tower 1", "City": "Halifax", "State": "NS", "Zip": "B3J 3N2", "Phone": null, "Upg": "true" }, "geometry": { "type": "Point", "coordinates": [ -63.5741994, 44.6517896 ] } },
{ "type": "Feature", "properties": { "Id": 180665, "Name": "BeaverBank Electrical Supplier", "Slug": "beaverbank-electrical-supplier", "Lat": 44.8101081, "Lon": -63.6858695, "Address": "543 Beaver Bank Rd", "City": "Sackville", "State": "NS", "Zip": "B4G1B8", "Phone": null, "Upg": "true" }, "geometry": { "type": "Point", "coordinates": [ -63.6858695, 44.8101081 ] } },
{ "type": "Feature", "properties": { "Id": 174785, "Name": "Bebbington Industries Inc", "Slug": "bebbington-industries-inc", "Lat": 44.6998122, "Lon": -63.601639, "Address": "44 Wright Ave", "City": "Dartmouth", "State": "NS", "Zip": "B3B 1G6", "Phone": null, "Upg": "true" }, "geometry": { "type": "Point", "coordinates": [ -63.601639, 44.6998122 ] } },
{ "type": "Feature", "properties": { "Id": 14699, "Name": "Bedford Academy", "Slug": "bedford-academy", "Lat": 44.7211013, "Lon": -63.6878856, "Address": "5 Brookshire Crt", "City": "Halifax", "State": "NS", "Zip": "B4A 4E2", "Phone": null, "Upg": "true" }, "geometry": { "type": "Point", "coordinates": [ -63.6878856, 44.7211013 ] } },
{ "type": "Feature", "properties": { "Id": 174938, "Name": "Bedford Appliance Warehouse", "Slug": "bedford-appliance-warehouse", "Lat": 44.7405903, "Lon": -63.6544724, "Address": "1743 Bedford Hwy", "City": "Bedford", "State": "NS", "Zip": "B4A 1G3", "Phone": null, "Upg": "true" }, "geometry": { "type": "Point", "coordinates": [ -63.6544724, 44.7405903 ] } },
{ "type": "Feature", "properties": { "Id": 180489, "Name": "Bee-Clean Building Maintenance", "Slug": "bee-clean-building-maintenance", "Lat": 44.70429, "Lon": -63.6118703, "Address": "900 Windmill Rd", "City": "Dartmouth", "State": "NS", "Zip": "B3B 1P7", "Phone": null, "Upg": "true" }, "geometry": { "type": "Point", "coordinates": [ -63.6118703, 44.70429 ] } },
{ "type": "Feature", "properties": { "Id": 30539, "Name": "Beech Tree Academy", "Slug": "beech-tree-academy", "Lat": 44.6378506, "Lon": -63.6918153, "Address": "1352 St. Margaret's Bay Road", "City": "Beechville", "State": "NS", "Zip": "B3T 1A2", "Phone": null, "Upg": "true" }, "geometry": { "type": "Point", "coordinates": [ -63.6918153, 44.6378506 ] } },
{ "type": "Feature", "properties": { "Id": 22059, "Name": "Bell Media (MOVE100, Virgin Radio & CTV Atlantic)", "Slug": "bell-media-move100-virgin-radio-ctv-atlantic", "Lat": 44.6594179, "Lon": -63.5997013, "Address": "2900 Agricola St", "City": "Halifax", "State": "NS", "Zip": "B3K6B2", "Phone": null, "Upg": "true" }, "geometry": { "type": "Point", "coordinates": [ -63.5997013, 44.6594179 ] } },
{ "type": "Feature", "properties": { "Id": 3073, "Name": "BellAliant", "Slug": "bellaliant", "Lat": 44.7233512, "Lon": -63.695424, "Address": "15 Western Parkway, 2East", "City": "Bedford", "State": "NS", "Zip": "B4V 0B1", "Phone": null, "Upg": "true" }, "geometry": { "type": "Point", "coordinates": [ -63.695424, 44.7233512 ] } },
{ "type": "Feature", "properties": { "Id": 180460, "Name": "Belmont Health & Wealth", "Slug": "belmont-health-wealth-dartmouth", "Lat": 44.6657206, "Lon": -63.5699046, "Address": "33 Alderney Dr", "City": "Dartmouth", "State": "NS", "Zip": "B2Y 2N4", "Phone": null, "Upg": "true" }, "geometry": { "type": "Point", "coordinates": [ -63.5699046, 44.6657206 ] } },
{ "type": "Feature", "properties": { "Id": 28791, "Name": "Bench Automotive Inc.", "Slug": "bench-automotive-inc", "Lat": 44.6937779, "Lon": -63.5458204, "Address": "202 Waverley Rd", "City": "Dartmouth", "State": "NS", "Zip": "B2X 2C1", "Phone": null, "Upg": "true" }, "geometry": { "type": "Point", "coordinates": [ -63.5458204, 44.6937779 ] } },
{ "type": "Feature", "properties": { "Id": 45743, "Name": "BeResponsive Media", "Slug": "beresponsive-media", "Lat": 44.7073945, "Lon": -63.7090714, "Address": "213 - 35 Bloom Lane", "City": "Bedford", "State": "NS", "Zip": "B4B 2E6", "Phone": null, "Upg": "true" }, "geometry": { "type": "Point", "coordinates": [ -63.7090714, 44.7073945 ] } },
{ "type": "Feature", "properties": { "Id": 179561, "Name": "Best Western Plus Chocolate Lake Hotel", "Slug": "best-western-plus-chocolate-lake-hotel", "Lat": 44.6397451, "Lon": -63.6241572, "Address": "250 St Margarets Bay Road", "City": "Halifax", "State": "NS", "Zip": "B3N 1J4", "Phone": null, "Upg": "true" }, "geometry": { "type": "Point", "coordinates": [ -63.6241572, 44.6397451 ] } },
{ "type": "Feature", "properties": { "Id": 1748, "Name": "Better Business Bureau - Serving the Atlantic Provinces", "Slug": "better-business-bureau-serving-the-atlantic-provinces", "Lat": 44.6558793, "Lon": -63.6258569, "Address": "7071 Bayers Road", "City": "Halifax", "State": "NS", "Zip": "B3L 2C2", "Phone": null, "Upg": "true" }, "geometry": { "type": "Point", "coordinates": [ -63.6258569, 44.6558793 ] } },
{ "type": "Feature", "properties": { "Id": 16025, "Name": "Better Documents Incorporated", "Slug": "better-documents-incorporated", "Lat": 44.673103, "Lon": -63.5821049, "Address": "192 Wyse Road", "City": "Dartmouth", "State": "NS", "Zip": "B2A 1M9", "Phone": null, "Upg": "true" }, "geometry": { "type": "Point", "coordinates": [ -63.5821049, 44.673103 ] } },
{ "type": "Feature", "properties": { "Id": 179189, "Name": "BFL CANADA Risk and Insurance Inc. ", "Slug": "bfl-canada-risk-and-insurance-inc", "Lat": 44.7320648, "Lon": -63.6551465, "Address": "306-1595 Bedford Hwy ", "City": "Bedford ", "State": "NS", "Zip": "B4A 3Y4", "Phone": null, "Upg": "true" }, "geometry": { "type": "Point", "coordinates": [ -63.6551465, 44.7320648 ] } },
{ "type": "Feature", "properties": { "Id": 13386, "Name": "Bide Awhile Animal Shelter Society", "Slug": "bide-awhile-animal-shelter-society", "Lat": 44.6598872, "Lon": -63.542748, "Address": "67 Neptune Cres", "City": "Dartmouth", "State": "NS", "Zip": "B2Y 4S2", "Phone": null, "Upg": "true" }, "geometry": { "type": "Point", "coordinates": [ -63.542748, 44.6598872 ] } },
{ "type": "Feature", "properties": { "Id": 5553, "Name": "Big Brothers Big Sisters of Greater Halifax", "Slug": "big-brothers-big-sisters-of-greater-halifax", "Lat": 44.667647, "Lon": -63.5669719, "Address": "86 Ochterloney St", "City": "Dartmouth", "State": "NS", "Zip": "B2Y 3Y5", "Phone": null, "Upg": "true" }, "geometry": { "type": "Point", "coordinates": [ -63.5669719, 44.667647 ] } },
{ "type": "Feature", "properties": { "Id": 44533, "Name": "Big Erics Inc.", "Slug": "big-erics-inc", "Lat": 44.7112091, "Lon": -63.5765314, "Address": "171 John Savage Ave.", "City": "Dartmouth", "State": "NS", "Zip": "B3B 0A8", "Phone": null, "Upg": "true" }, "geometry": { "type": "Point", "coordinates": [ -63.5765314, 44.7112091 ] } },
{ "type": "Feature", "properties": { "Id": 178586, "Name": "Binogi Studio Ltd", "Slug": "binogi-studio-ltd", "Lat": 44.6444057, "Lon": -63.5719269, "Address": "1505 Barrington Street Suite 112", "City": "Halifax ", "State": "NS", "Zip": "B3J 3K5", "Phone": null, "Upg": "true" }, "geometry": { "type": "Point", "coordinates": [ -63.5719269, 44.6444057 ] } },
{ "type": "Feature", "properties": { "Id": 9595, "Name": "BioNova", "Slug": "bionova", "Lat": 44.6397731, "Lon": -63.5831423, "Address": "1344 Summer St", "City": "Halifax", "State": "NS", "Zip": "B3H 0A8", "Phone": null, "Upg": "true" }, "geometry": { "type": "Point", "coordinates": [ -63.5831423, 44.6397731 ] } },
{ "type": "Feature", "properties": { "Id": 179799, "Name": "BioVectra", "Slug": "biovectra", "Lat": 44.9889133, "Lon": -64.1039575, "Address": "24 Ivey Lane", "City": "Windsor", "State": "NS", "Zip": "B0N 2T0", "Phone": null, "Upg": "true" }, "geometry": { "type": "Point", "coordinates": [ -64.1039575, 44.9889133 ] } },
{ "type": "Feature", "properties": { "Id": 15065, "Name": "Bishop's Cellar", "Slug": "bishop-s-cellar", "Lat": 44.6445301, "Lon": -63.5691537, "Address": "1477 Lower Water St", "City": "Halifax", "State": "NS", "Zip": "B3J 3Z4", "Phone": null, "Upg": "true" }, "geometry": { "type": "Point", "coordinates": [ -63.5691537, 44.6445301 ] } },
{ "type": "Feature", "properties": { "Id": 1754, "Name": "Black & McDonald Limited", "Slug": "black-mcdonald-limited", "Lat": 44.7213388, "Lon": -63.5650239, "Address": "60 Cutler Ave", "City": "Dartmouth", "State": "NS", "Zip": "B3B 0J6", "Phone": null, "Upg": "true" }, "geometry": { "type": "Point", "coordinates": [ -63.5650239, 44.7213388 ] } },
{ "type": "Feature", "properties": { "Id": 5984, "Name": "Black Business Initiative", "Slug": "black-business-initiative-society", "Lat": 44.6468006, "Lon": -63.5725195, "Address": "1660 Hollis St", "City": "Halifax", "State": "NS", "Zip": "B3J 1V7", "Phone": null, "Upg": "true" }, "geometry": { "type": "Point", "coordinates": [ -63.5725195, 44.6468006 ] } },
{ "type": "Feature", "properties": { "Id": 20996, "Name": "Black Diamond Builders Ltd.", "Slug": "black-diamond-builders-ltd", "Lat": 44.6230129, "Lon": -63.6180474, "Address": "PO Box 20137", "City": "Halifax", "State": "NS", "Zip": "B3P 1L1", "Phone": null, "Upg": "true" }, "geometry": { "type": "Point", "coordinates": [ -63.6180474, 44.6230129 ] } },
{ "type": "Feature", "properties": { "Id": 11005, "Name": "Black Educators Association", "Slug": "black-educators-association", "Lat": 44.6522207, "Lon": -63.5838853, "Address": "2136 Gottingen St", "City": "Halifax", "State": "NS", "Zip": "B3K 3B3", "Phone": null, "Upg": "true" }, "geometry": { "type": "Point", "coordinates": [ -63.5838853, 44.6522207 ] } },
{ "type": "Feature", "properties": { "Id": 163398, "Name": "Black Star Wealth", "Slug": "black-star-wealth", "Lat": 44.6654947, "Lon": -63.6130739, "Address": "6089 Lady Hammond Rd", "City": "Halifax", "State": "NS", "Zip": "B3K 2R8", "Phone": null, "Upg": "true" }, "geometry": { "type": "Point", "coordinates": [ -63.6130739, 44.6654947 ] } },
{ "type": "Feature", "properties": { "Id": 14745, "Name": "Blain Morris Productions", "Slug": "blain-morris-productions", "Lat": 44.6224556, "Lon": -63.5744667, "Address": "5940 Balmoral Rd", "City": "Halifax", "State": "NS", "Zip": "B3H 1A6", "Phone": null, "Upg": "true" }, "geometry": { "type": "Point", "coordinates": [ -63.5744667, 44.6224556 ] } },
{ "type": "Feature", "properties": { "Id": 29665, "Name": "Blended Athletics Inc", "Slug": "blended-athletics-inc", "Lat": 44.7097897, "Lon": -63.5710253, "Address": "580 Wright Ave", "City": "Dartmouth", "State": "NS", "Zip": "B3B 0H8", "Phone": null, "Upg": "true" }, "geometry": { "type": "Point", "coordinates": [ -63.571025299999988, 44.709789699999988 ] } },
{ "type": "Feature", "properties": { "Id": 7937, "Name": "Blindsource", "Slug": "blindsource", "Lat": 44.7135929, "Lon": -63.5940929, "Address": "95 Akerley Blvd", "City": "Dartmouth", "State": "NS", "Zip": "B3B 1R7", "Phone": null, "Upg": "true" }, "geometry": { "type": "Point", "coordinates": [ -63.5940929, 44.7135929 ] } },
{ "type": "Feature", "properties": { "Id": 179558, "Name": "Bloxo Inc.", "Slug": "bloxo-inc", "Lat": 44.6443343, "Lon": -63.5718404, "Address": "c/o Volta Labs Unit", "City": "Halifax", "State": "NS", "Zip": "B3J3K5", "Phone": null, "Upg": "true" }, "geometry": { "type": "Point", "coordinates": [ -63.5718404, 44.6443343 ] } },
{ "type": "Feature", "properties": { "Id": 27998, "Name": "Blue Nose Marathon", "Slug": "blue-nose-marathon", "Lat": 44.6732082, "Lon": -63.5819435, "Address": "192 Wyse Rd", "City": "Dartmouth", "State": "NS", "Zip": "B3A 1M9", "Phone": null, "Upg": "true" }, "geometry": { "type": "Point", "coordinates": [ -63.5819435, 44.6732082 ] } },
{ "type": "Feature", "properties": { "Id": 25211, "Name": "Bluedrop Training & Simulation Inc.", "Slug": "bluedrop-training-simulation-inc", "Lat": 44.6552493, "Lon": -63.6700527, "Address": "36 Solutions Dr", "City": "Halifax", "State": "NS", "Zip": "B3S 1N2", "Phone": null, "Upg": "true" }, "geometry": { "type": "Point", "coordinates": [ -63.6700527, 44.6552493 ] } },
{ "type": "Feature", "properties": { "Id": 179138, "Name": "Bluenose Accounting", "Slug": "bluenose-accounting-upper-tantallon", "Lat": 44.6880189, "Lon": -63.8832033, "Address": "13589 Peggy's Cove Rd", "City": "Upper Tantallon", "State": "NS", "Zip": "B3Z 2J3", "Phone": null, "Upg": "true" }, "geometry": { "type": "Point", "coordinates": [ -63.8832033, 44.6880189 ] } },
{ "type": "Feature", "properties": { "Id": 17344, "Name": "Blunden Construction", "Slug": "blunden-construction", "Lat": 44.7094416, "Lon": -63.5979948, "Address": "141B Joseph Zatzman Dr", "City": "Dartmouth", "State": "NS", "Zip": "B3B 1M7", "Phone": null, "Upg": "true" }, "geometry": { "type": "Point", "coordinates": [ -63.5979948, 44.7094416 ] } },
{ "type": "Feature", "properties": { "Id": 178806, "Name": "BMO Bank of Montreal - Canadian Commercial Banking", "Slug": "bmo-bank-of-montreal-canadian-commercial-banking", "Lat": 44.6466417, "Lon": -63.5752617, "Address": "Nova Centre, 1675 Grafton Street", "City": "Halifax", "State": "NS", "Zip": "B3J 0E9", "Phone": null, "Upg": "true" }, "geometry": { "type": "Point", "coordinates": [ -63.5752617, 44.6466417 ] } },
{ "type": "Feature", "properties": { "Id": 11629, "Name": "BMO Private Banking", "Slug": "bmo-private-banking", "Lat": 44.6466417, "Lon": -63.5752617, "Address": "1675 Grafton Street", "City": "Halifax", "State": "NS", "Zip": "B3J0E9", "Phone": null, "Upg": "true" }, "geometry": { "type": "Point", "coordinates": [ -63.5752617, 44.6466417 ] } },
{ "type": "Feature", "properties": { "Id": 179336, "Name": "BNV Media Inc.", "Slug": "bnv-media-inc", "Lat": 44.6469054, "Lon": -63.5712894, "Address": "5121 Sackville St", "City": "Halifax", "State": "NS", "Zip": "B3J 1K1", "Phone": null, "Upg": "true" }, "geometry": { "type": "Point", "coordinates": [ -63.5712894, 44.6469054 ] } },
{ "type": "Feature", "properties": { "Id": 179634, "Name": "Boom12 Communications", "Slug": "boom12-communications", "Lat": 44.6455437, "Lon": -63.5963096, "Address": "6218 Quinpool Rd", "City": "Halifax", "State": "NS", "Zip": "B3K 2R6", "Phone": null, "Upg": "true" }, "geometry": { "type": "Point", "coordinates": [ -63.5963096, 44.6455437 ] } },
{ "type": "Feature", "properties": { "Id": 179864, "Name": "Boondocks Restaurant", "Slug": "boondocks-restaurant-eastern-passage", "Lat": 44.6106905, "Lon": -63.4957927, "Address": "200 Government Wharf Rd", "City": "Eastern Passage", "State": "NS", "Zip": "B3G 1M7", "Phone": null, "Upg": "true" }, "geometry": { "type": "Point", "coordinates": [ -63.4957927, 44.6106905 ] } },
{ "type": "Feature", "properties": { "Id": 20084, "Name": "Boost International Inc.", "Slug": "boost-international-inc", "Lat": 44.7014006, "Lon": -63.6614807, "Address": "660 Bedford Highway", "City": "Halifax", "State": "NS", "Zip": "B3M 2L8", "Phone": null, "Upg": "true" }, "geometry": { "type": "Point", "coordinates": [ -63.6614807, 44.7014006 ] } },
{ "type": "Feature", "properties": { "Id": 16141, "Name": "Bourque Security Services NS", "Slug": "bourque-security-services-ns", "Lat": 44.6386395, "Lon": -63.6677053, "Address": "55 Crane Lake Dr", "City": "Halifax", "State": "NS", "Zip": "B3S 1B5", "Phone": null, "Upg": "true" }, "geometry": { "type": "Point", "coordinates": [ -63.6677053, 44.6386395 ] } },
{ "type": "Feature", "properties": { "Id": 164, "Name": "BOYNECLARKE LLP", "Slug": "boyneclarke-llp", "Lat": 44.6689868, "Lon": -63.5766881, "Address": "99 Wyse Road, Suite 600", "City": "Dartmouth", "State": "NS", "Zip": "B3A 4S5", "Phone": null, "Upg": "true" }, "geometry": { "type": "Point", "coordinates": [ -63.5766881, 44.6689868 ] } },
{ "type": "Feature", "properties": { "Id": 11026, "Name": "Braemed Limited", "Slug": "braemed-limited", "Lat": 44.6997187, "Lon": -63.5939886, "Address": "10 Thornhill Dr", "City": "Dartmouth", "State": "NS", "Zip": "B3B 1S1", "Phone": null, "Upg": "true" }, "geometry": { "type": "Point", "coordinates": [ -63.5939886, 44.6997187 ] } },
{ "type": "Feature", "properties": { "Id": 180562, "Name": "Brawta Jamaican Jerk Joint", "Slug": "brawta-jamaican-jerk-joint-halifax", "Lat": 44.6451245, "Lon": -63.5743377, "Address": "1567 Grafton Street", "City": "Halifax", "State": "NS", "Zip": "B3J 2C3", "Phone": null, "Upg": "true" }, "geometry": { "type": "Point", "coordinates": [ -63.5743377, 44.6451245 ] } },
{ "type": "Feature", "properties": { "Id": 179830, "Name": "Breast Cancer Society of Canada", "Slug": "breast-cancer-society-of-canada", "Lat": 42.9850904, "Lon": -82.3893407, "Address": "415 Exmouth St", "City": "Sarnia", "State": "ON", "Zip": "N7T 8A4", "Phone": null, "Upg": "true" }, "geometry": { "type": "Point", "coordinates": [ -82.3893407, 42.9850904 ] } },
{ "type": "Feature", "properties": { "Id": 178606, "Name": "Bridges Institute", "Slug": "bridges-institute", "Lat": 45.364982, "Lon": -63.2808904, "Address": "676 Prince St", "City": "Truro", "State": "NS", "Zip": "B3Z 4B8", "Phone": null, "Upg": "true" }, "geometry": { "type": "Point", "coordinates": [ -63.2808904, 45.364982 ] } },
{ "type": "Feature", "properties": { "Id": 15025, "Name": "Bridgeway Academy Association", "Slug": "bridgeway-academy-association", "Lat": 44.6864717, "Lon": -63.5412687, "Address": "3 Valleyford Ave", "City": "Dartmouth", "State": "NS", "Zip": "B2X 1W8", "Phone": null, "Upg": "true" }, "geometry": { "type": "Point", "coordinates": [ -63.5412687, 44.6864717 ] } },
{ "type": "Feature", "properties": { "Id": 17753, "Name": "Brigadoon Village", "Slug": "brigadoon-village", "Lat": 44.662106, "Lon": -63.599309, "Address": "5523A Young St", "City": "Halifax", "State": "NS", "Zip": "B3K 1Z7", "Phone": null, "Upg": "true" }, "geometry": { "type": "Point", "coordinates": [ -63.599309, 44.662106 ] } },
{ "type": "Feature", "properties": { "Id": 179149, "Name": "Brightwood Brewery", "Slug": "brightwood-brewery", "Lat": 44.6650405, "Lon": -63.5675719, "Address": "35 Portland St", "City": "Dartmouth", "State": "NS", "Zip": "B2Y 1H1", "Phone": null, "Upg": "true" }, "geometry": { "type": "Point", "coordinates": [ -63.5675719, 44.6650405 ] } },
{ "type": "Feature", "properties": { "Id": 1131, "Name": "Brightwood Golf & Country Club Ltd.", "Slug": "brightwood-golf-country-club-ltd", "Lat": 44.6753305, "Lon": -63.5725533, "Address": "227 School Street", "City": "Dartmouth", "State": "NS", "Zip": "B3A 2Y5", "Phone": null, "Upg": "true" }, "geometry": { "type": "Point", "coordinates": [ -63.5725533, 44.6753305 ] } },
{ "type": "Feature", "properties": { "Id": 8193, "Name": "Brokerlink Insurance", "Slug": "brokerlink-insurance", "Lat": 44.6424362, "Lon": -63.6636966, "Address": "137 Chain Lake Road", "City": "Halifax", "State": "NS", "Zip": "B3S 1B3", "Phone": null, "Upg": "true" }, "geometry": { "type": "Point", "coordinates": [ -63.6636966, 44.6424362 ] } },
{ "type": "Feature", "properties": { "Id": 176491, "Name": "BroMoc Print", "Slug": "bromoc-print-dartmouth", "Lat": 44.7161532, "Lon": -63.5818307, "Address": "46 Payzant Ave", "City": "Dartmouth", "State": "NS", "Zip": "B3B 1Z6", "Phone": null, "Upg": "true" }, "geometry": { "type": "Point", "coordinates": [ -63.5818307, 44.7161532 ] } },
{ "type": "Feature", "properties": { "Id": 17021, "Name": "Brookes Diamond Productions", "Slug": "brookes-diamond-productions", "Lat": 44.6434074, "Lon": -63.6262323, "Address": "24 Rockwood Ave", "City": "Halifax", "State": "NS", "Zip": "B3N 1X5", "Phone": null, "Upg": "true" }, "geometry": { "type": "Point", "coordinates": [ -63.626232300000012, 44.6434074 ] } },
{ "type": "Feature", "properties": { "Id": 180026, "Name": "Brookline Dentistry", "Slug": "brookline-dentistry-bedford", "Lat": 44.7076187, "Lon": -63.7091445, "Address": "101-6 Bloom Lane", "City": "Bedford", "State": "NS", "Zip": "B4B 2E6", "Phone": null, "Upg": "true" }, "geometry": { "type": "Point", "coordinates": [ -63.7091445, 44.7076187 ] } },
{ "type": "Feature", "properties": { "Id": 14396, "Name": "Bruce & Monahan Chartered Accountants Inc.", "Slug": "bruce-monahan-chartered-accountants-inc", "Lat": 44.6583111, "Lon": -63.6031539, "Address": "6080 Young St", "City": "Halifax", "State": "NS", "Zip": "B3K 5L2", "Phone": null, "Upg": "true" }, "geometry": { "type": "Point", "coordinates": [ -63.6031539, 44.6583111 ] } },
{ "type": "Feature", "properties": { "Id": 45841, "Name": "Bryden Financing and Auto Sales Inc. ", "Slug": "bryden-financing-and-auto-sales-inc", "Lat": 44.7603208, "Lon": -63.6703595, "Address": "257 Sackville Dr", "City": "Lower Sackville", "State": "NS", "Zip": "B4C 2R5", "Phone": null, "Upg": "true" }, "geometry": { "type": "Point", "coordinates": [ -63.6703595, 44.7603208 ] } },
{ "type": "Feature", "properties": { "Id": 14173, "Name": "Bryony House", "Slug": "bryony-house-dartmouth", "Lat": 44.6820853, "Lon": -63.5349943, "Address": "112 Tacoma Drive", "City": "Dartmouth", "State": "NS", "Zip": "B2W 3E9", "Phone": null, "Upg": "true" }, "geometry": { "type": "Point", "coordinates": [ -63.5349943, 44.6820853 ] } },
{ "type": "Feature", "properties": { "Id": 179910, "Name": "Brytor International Moving", "Slug": "brytor-international-moving", "Lat": 44.7195791, "Lon": -63.5828277, "Address": "29 Ramona Court", "City": "Dartmouth", "State": "NS", "Zip": "B3B 0P6", "Phone": null, "Upg": "true" }, "geometry": { "type": "Point", "coordinates": [ -63.5828277, 44.7195791 ] } },
{ "type": "Feature", "properties": { "Id": 1569, "Name": "Building Futures Employment Society", "Slug": "building-futures-employment-society", "Lat": 44.7585293, "Lon": -63.6566512, "Address": "61 Glendale Ave", "City": "Sackville", "State": "NS", "Zip": "B4C 3J4", "Phone": null, "Upg": "true" }, "geometry": { "type": "Point", "coordinates": [ -63.6566512, 44.7585293 ] } },
{ "type": "Feature", "properties": { "Id": 176571, "Name": "Bulletproof", "Slug": "bulletproof", "Lat": 44.6371871, "Lon": -63.6706723, "Address": "84 Chain Lake Drive", "City": "Halifax", "State": "NS", "Zip": "B3S 1A2", "Phone": null, "Upg": "true" }, "geometry": { "type": "Point", "coordinates": [ -63.6706723, 44.6371871 ] } },
{ "type": "Feature", "properties": { "Id": 179810, "Name": "Bureau du Québec dans les Provinces atlantiques", "Slug": "bureau-du-québec-dans-les-provinces-atlantiques", "Lat": 46.0885086, "Lon": -64.7782104, "Address": "777, rue Main, bureau 710", "City": "Moncton", "State": "NB", "Zip": "E1C 1E9", "Phone": null, "Upg": "true" }, "geometry": { "type": "Point", "coordinates": [ -64.7782104, 46.0885086 ] } },
{ "type": "Feature", "properties": { "Id": 30089, "Name": "Burnside Law", "Slug": "burnside-law", "Lat": 44.6982735, "Lon": -63.5820753, "Address": "202 Brownlow Ave", "City": "Dartmouth", "State": "NS", "Zip": "B3B 1T5", "Phone": null, "Upg": "true" }, "geometry": { "type": "Point", "coordinates": [ -63.5820753, 44.6982735 ] } },
{ "type": "Feature", "properties": { "Id": 489, "Name": "Business Development Bank of Canada  - BDC", "Slug": "business-development-bank-of-canada-bdc", "Lat": 44.6509069, "Lon": -63.5773374, "Address": "2000 Barrington St", "City": "Halifax", "State": "NS", "Zip": "B3J 3K1", "Phone": null, "Upg": "true" }, "geometry": { "type": "Point", "coordinates": [ -63.5773374, 44.6509069 ] } },
{ "type": "Feature", "properties": { "Id": 15474, "Name": "Butler Sanitary Products Inc", "Slug": "butler-sanitary-products-inc", "Lat": 44.7329881, "Lon": -63.3997634, "Address": "77 Thomas St", "City": "Lake Echo", "State": "NS", "Zip": "B3E 1M6", "Phone": null, "Upg": "true" }, "geometry": { "type": "Point", "coordinates": [ -63.3997634, 44.7329881 ] } },
{ "type": "Feature", "properties": { "Id": 174998, "Name": "Butterfield Support Services", "Slug": "butterfield-support-services", "Lat": 44.6473728, "Lon": -63.572401, "Address": "1701 Hollis St", "City": "Halifax", "State": "NS", "Zip": "B3J 3M8", "Phone": null, "Upg": "true" }, "geometry": { "type": "Point", "coordinates": [ -63.572401, 44.6473728 ] } },
{ "type": "Feature", "properties": { "Id": 176624, "Name": "By + Large Studios", "Slug": "by-large-studios", "Lat": 44.6649987, "Lon": -63.567523, "Address": "35 Portland St", "City": "Dartmouth", "State": "NS", "Zip": "B2Y 1H1", "Phone": null, "Upg": "true" }, "geometry": { "type": "Point", "coordinates": [ -63.567523, 44.6649987 ] } },
{ "type": "Feature", "properties": { "Id": 178739, "Name": "CAA Atlantic", "Slug": "caa-atlantic", "Lat": 44.7050849, "Lon": -63.5764774, "Address": "330 John Savage Ave", "City": "Dartmouth", "State": "NS", "Zip": "B3B 0L7", "Phone": null, "Upg": "true" }, "geometry": { "type": "Point", "coordinates": [ -63.5764774, 44.7050849 ] } },
{ "type": "Feature", "properties": { "Id": 161696, "Name": "Cabco Communications Group", "Slug": "cabco-communications-group", "Lat": 44.7008536, "Lon": -63.6062236, "Address": "200 - 2 Ralston Ave", "City": "Dartmouth", "State": "NS", "Zip": "B3B 1H7", "Phone": null, "Upg": "true" }, "geometry": { "type": "Point", "coordinates": [ -63.6062236, 44.7008536 ] } },
{ "type": "Feature", "properties": { "Id": 1398, "Name": "Cabot Shipping Supplies Ltd.", "Slug": "cabot-shipping-supplies-ltd", "Lat": 44.7126464, "Lon": -63.572387, "Address": "106 Burbridge Ave", "City": "Dartmouth", "State": "NS", "Zip": "B3B 0G7", "Phone": null, "Upg": "true" }, "geometry": { "type": "Point", "coordinates": [ -63.572387, 44.7126464 ] } },
{ "type": "Feature", "properties": { "Id": 179524, "Name": "Caldera Distilling Inc", "Slug": "caldera-distilling-inc", "Lat": 45.7579687, "Lon": -63.0446077, "Address": "65 River John Rd", "City": "River John", "State": "NS", "Zip": "B0K 1N0", "Phone": null, "Upg": "true" }, "geometry": { "type": "Point", "coordinates": [ -63.0446077, 45.7579687 ] } },
{ "type": "Feature", "properties": { "Id": 1811, "Name": "Campbell Comeau Engineering Ltd.", "Slug": "campbell-comeau-engineering-ltd", "Lat": 44.6551128, "Lon": -63.5993547, "Address": "2719 Gladstone Street", "City": "Halifax", "State": "NS", "Zip": "B3K 4W6", "Phone": null, "Upg": "true" }, "geometry": { "type": "Point", "coordinates": [ -63.5993547, 44.6551128 ] } },
{ "type": "Feature", "properties": { "Id": 26039, "Name": "Canadian Beverage Association", "Slug": "canadian-beverage-association", "Lat": 43.6415818, "Lon": -79.3776894, "Address": "20 Bay Street, 11th Floor", "City": "Toronto", "State": "ON", "Zip": "M5J 2N8", "Phone": null, "Upg": "true" }, "geometry": { "type": "Point", "coordinates": [ -79.3776894, 43.6415818 ] } },
{ "type": "Feature", "properties": { "Id": 10246, "Name": "Canadian Blood Services", "Slug": "canadian-blood-services-dartmouth", "Lat": 44.7071197, "Lon": -63.5781991, "Address": "270 John Savage Ave.", "City": "Dartmouth", "State": "NS", "Zip": "B3B 0H7", "Phone": null, "Upg": "true" }, "geometry": { "type": "Point", "coordinates": [ -63.5781991, 44.7071197 ] } },
{ "type": "Feature", "properties": { "Id": 23007, "Name": "Canadian Business Management Accounting Services Inc.", "Slug": "canadian-business-management-accounting-services-inc", "Lat": 44.6832376, "Lon": -63.534937, "Address": "177 Main St", "City": "Dartmouth", "State": "NS", "Zip": "B2X 1S1", "Phone": null, "Upg": "true" }, "geometry": { "type": "Point", "coordinates": [ -63.534937, 44.6832376 ] } },
{ "type": "Feature", "properties": { "Id": 174908, "Name": "Canadian Home Builders' Association of Nova Scotia", "Slug": "canadian-home-builders-association-of-nova-scotia-halifax", "Lat": 44.6622163, "Lon": -63.6562306, "Address": "P.O Box 25067", "City": "Halifax", "State": "NS", "Zip": "B3M 4H4", "Phone": null, "Upg": "true" }, "geometry": { "type": "Point", "coordinates": [ -63.6562306, 44.6622163 ] } },
{ "type": "Feature", "properties": { "Id": 16603, "Name": "Canadian Lebanese Chamber of Commerce", "Slug": "canadian-lebanese-chamber-of-commerce", "Lat": 44.6558793, "Lon": -63.6258569, "Address": "PO Box 22016", "City": "Halifax", "State": "NS", "Zip": "B3L 2C0", "Phone": null, "Upg": "true" }, "geometry": { "type": "Point", "coordinates": [ -63.6258569, 44.6558793 ] } },
{ "type": "Feature", "properties": { "Id": 5107, "Name": "Canadian Manufacturers & Exporters", "Slug": "canadian-manufacturers-exporters-enfield", "Lat": 44.9246382, "Lon": -63.5380428, "Address": "PO Box 51", "City": "Enfield", "State": "NS", "Zip": "B2T 1C", "Phone": null, "Upg": "true" }, "geometry": { "type": "Point", "coordinates": [ -63.5380428, 44.9246382 ] } },
{ "type": "Feature", "properties": { "Id": 14741, "Name": "Canadian Mental Health Association Nova Scotia Division", "Slug": "canadian-mental-health-association-nova-scotia-division-dartmouth", "Lat": 44.6708897, "Lon": -63.5259457, "Address": "3-644 Portland St", "City": "Dartmouth", "State": "NS", "Zip": "B2W 6C4", "Phone": null, "Upg": "true" }, "geometry": { "type": "Point", "coordinates": [ -63.5259457, 44.6708897 ] } },
{ "type": "Feature", "properties": { "Id": 8899, "Name": "Canadian Museum of Immigration at Pier 21", "Slug": "canadian-museum-of-immigration-at-pier-21", "Lat": 44.6382368, "Lon": -63.565032, "Address": "1055 Marginal Rd", "City": "Halifax", "State": "NS", "Zip": "B3H 4P7", "Phone": null, "Upg": "true" }, "geometry": { "type": "Point", "coordinates": [ -63.565032, 44.6382368 ] } },
{ "type": "Feature", "properties": { "Id": 18952, "Name": "Canadian National Institute for the Blind (CNIB)", "Slug": "canadian-national-institute-for-the-blind-cnib-halifax", "Lat": 44.6554757, "Lon": -63.6006527, "Address": "6136 Almon St", "City": "Halifax", "State": "NS", "Zip": "B3K 1T8", "Phone": null, "Upg": "true" }, "geometry": { "type": "Point", "coordinates": [ -63.6006527, 44.6554757 ] } },
{ "type": "Feature", "properties": { "Id": 1893, "Name": "Canadian National Railway", "Slug": "canadian-national-railway", "Lat": 44.6742367, "Lon": -63.6094319, "Address": "5271 Africville Rd", "City": "Halifax", "State": "NS", "Zip": "B3K 2Y3", "Phone": null, "Upg": "true" }, "geometry": { "type": "Point", "coordinates": [ -63.6094319, 44.674236699999987 ] } },
{ "type": "Feature", "properties": { "Id": 175291, "Name": "Canadian Parents for French, Nova Scotia", "Slug": "canadian-parents-for-french-nova-scotia", "Lat": 44.6746664, "Lon": -63.648585, "Address": "8 Flamingo Drive", "City": "Halifax", "State": "NS", "Zip": "B3M 4N8", "Phone": null, "Upg": "true" }, "geometry": { "type": "Point", "coordinates": [ -63.648585, 44.6746664 ] } },
{ "type": "Feature", "properties": { "Id": 13081, "Name": "Canadian Professional Sales Association", "Slug": "canadian-professional-sales-association", "Lat": 43.643869, "Lon": -79.3905927, "Address": "800-310 Front St. W", "City": "Toronto", "State": "ON", "Zip": "M5V 3B5", "Phone": null, "Upg": "true" }, "geometry": { "type": "Point", "coordinates": [ -79.3905927, 43.643869 ] } },
{ "type": "Feature", "properties": { "Id": 7675, "Name": "Canadian Progress Club Halifax Citadel ", "Slug": "canadian-progress-club-halifax-citadel", "Lat": 44.6526075, "Lon": -63.5984008, "Address": "PO Box 31170", "City": "Halifax", "State": "NS", "Zip": "B3K 5Y1", "Phone": null, "Upg": "true" }, "geometry": { "type": "Point", "coordinates": [ -63.5984008, 44.6526075 ] } },
{ "type": "Feature", "properties": { "Id": 32904, "Name": "Canadian Recycling Limited", "Slug": "canadian-recycling-limited", "Lat": 44.6677217, "Lon": -63.5498313, "Address": "365 Portland Street", "City": "Dartmouth", "State": "NS", "Zip": "B2Y 1K7", "Phone": null, "Upg": "true" }, "geometry": { "type": "Point", "coordinates": [ -63.5498313, 44.6677217 ] } },
{ "type": "Feature", "properties": { "Id": 1769, "Name": "Canadian Red Cross", "Slug": "canadian-red-cross", "Lat": 44.7098991, "Lon": -63.5848652, "Address": "133 Troop Ave", "City": "Dartmouth", "State": "NS", "Zip": "B3B 2A7", "Phone": null, "Upg": "true" }, "geometry": { "type": "Point", "coordinates": [ -63.5848652, 44.7098991 ] } },
{ "type": "Feature", "properties": { "Id": 180434, "Name": "Canadian Renewable Energy Association (CanREA)", "Slug": "canadian-renewable-energy-association-canrea", "Lat": 45.4164635, "Lon": -75.6976392, "Address": "240  Bank Street", "City": "Ottawa", "State": "ON", "Zip": "K2P 1X4", "Phone": null, "Upg": "true" }, "geometry": { "type": "Point", "coordinates": [ -75.6976392, 45.4164635 ] } },
{ "type": "Feature", "properties": { "Id": 180165, "Name": "Candybox Marketing Inc.", "Slug": "candybox-marketing-inc", "Lat": 44.6473148, "Lon": -63.5723689, "Address": "1701 Hollis St", "City": "Halifax", "State": "NS", "Zip": "B3J2T9", "Phone": null, "Upg": "true" }, "geometry": { "type": "Point", "coordinates": [ -63.5723689, 44.6473148 ] } },
{ "type": "Feature", "properties": { "Id": 180260, "Name": "Canoe 22 Society", "Slug": "canoe-22-society-dartmouth", "Lat": 44.6759964, "Lon": -63.5627917, "Address": "20 Boathouse Ln", "City": "Dartmouth", "State": "NS", "Zip": "B3A 4R3", "Phone": null, "Upg": "true" }, "geometry": { "type": "Point", "coordinates": [ -63.5627917, 44.6759964 ] } },
{ "type": "Feature", "properties": { "Id": 179673, "Name": "Canvas Moncton, Tapestry Collection by Hilton", "Slug": "canvas-moncton-tapestry-collection-by-hilton", "Lat": 46.0906627, "Lon": -64.7746843, "Address": "55 Queen St", "City": "Moncton", "State": "NB", "Zip": "E1C 1K2", "Phone": null, "Upg": "true" }, "geometry": { "type": "Point", "coordinates": [ -64.7746843, 46.0906627 ] } },
{ "type": "Feature", "properties": { "Id": 179675, "Name": "Cape & Cowl Comics & Collectibles", "Slug": "cape-cowl-comics-collectibles", "Lat": 44.7682891, "Lon": -63.6875859, "Address": "622 Sackville Dr", "City": "Lower Sackville", "State": "NS", "Zip": "B4C2S3", "Phone": null, "Upg": "true" }, "geometry": { "type": "Point", "coordinates": [ -63.6875859, 44.7682891 ] } },
{ "type": "Feature", "properties": { "Id": 22566, "Name": "Caregivers Nova Scotia Association", "Slug": "caregivers-nova-scotia-association", "Lat": 44.6543792, "Lon": -63.631632, "Address": "3433 Dutch Village Rd", "City": "Halifax", "State": "NS", "Zip": "B3N 2S7", "Phone": null, "Upg": "true" }, "geometry": { "type": "Point", "coordinates": [ -63.631632, 44.6543792 ] } },
{ "type": "Feature", "properties": { "Id": 177278, "Name": "Carol Cone On Purpose, Inc.", "Slug": "carol-cone-on-purpose-inc", "Lat": 44.6892924, "Lon": -63.8803791, "Address": "5229 St. Margaret's Bay Road", "City": "Upper Tantallon", "State": "NS", "Zip": "B3Z4R9", "Phone": null, "Upg": "true" }, "geometry": { "type": "Point", "coordinates": [ -63.8803791, 44.6892924 ] } },
{ "type": "Feature", "properties": { "Id": 163416, "Name": "Carson Leasing Limited", "Slug": "carson-leasing-limited", "Lat": 44.6930937, "Lon": -63.599391, "Address": "550 Windmill Road", "City": "Dartmouth", "State": "NS", "Zip": "B3B 1B3", "Phone": null, "Upg": "true" }, "geometry": { "type": "Point", "coordinates": [ -63.599391, 44.6930937 ] } },
{ "type": "Feature", "properties": { "Id": 179276, "Name": "Casablanca Authentic Moroccan Cuisine", "Slug": "casablanca-authentic-moroccan-cuisine", "Lat": 44.6437642, "Lon": -63.5767125, "Address": "1532 Queen St", "City": "Halifax", "State": "NS", "Zip": "B3J 2H8", "Phone": null, "Upg": "true" }, "geometry": { "type": "Point", "coordinates": [ -63.5767125, 44.6437642 ] } },
{ "type": "Feature", "properties": { "Id": 14377, "Name": "Cascades Day Spa", "Slug": "cascades-day-spa", "Lat": 44.729387, "Lon": -63.6627888, "Address": "1405 Bedford Hwy", "City": "Bedford", "State": "NS", "Zip": "B4A 3C5", "Phone": null, "Upg": "true" }, "geometry": { "type": "Point", "coordinates": [ -63.6627888, 44.729387 ] } },
{ "type": "Feature", "properties": { "Id": 15580, "Name": "Casino Nova Scotia", "Slug": "casino-nova-scotia", "Lat": 44.6528725, "Lon": -63.575919, "Address": "1983 Upper Water St.", "City": "Halifax", "State": "NS", "Zip": "B3J 3Y5", "Phone": null, "Upg": "true" }, "geometry": { "type": "Point", "coordinates": [ -63.575919, 44.6528725 ] } },
{ "type": "Feature", "properties": { "Id": 1797, "Name": "CBCL Limited", "Slug": "cbcl-limited", "Lat": 44.6444057, "Lon": -63.5719269, "Address": "PO Box 606", "City": "Halifax", "State": "NS", "Zip": "B3J 2R7", "Phone": null, "Upg": "true" }, "geometry": { "type": "Point", "coordinates": [ -63.5719269, 44.6444057 ] } },
{ "type": "Feature", "properties": { "Id": 33104, "Name": "CBDC Blue Water", "Slug": "cbdc-blue-water", "Lat": 44.7429571, "Lon": -63.2788648, "Address": "61 Stella Drive", "City": "Porters Lake", "State": "NS", "Zip": "B3E 0G4", "Phone": null, "Upg": "true" }, "geometry": { "type": "Point", "coordinates": [ -63.2788648, 44.7429571 ] } },
{ "type": "Feature", "properties": { "Id": 8751, "Name": "CBRE Limited - Halifax", "Slug": "cbre-limited-halifax", "Lat": 44.6415901, "Lon": -63.5837505, "Address": "300-5855 Spring Garden Road", "City": "Halifax", "State": "Nova Scotia", "Zip": "B3H4S2", "Phone": null, "Upg": "true" }, "geometry": { "type": "Point", "coordinates": [ -63.5837505, 44.6415901 ] } },
{ "type": "Feature", "properties": { "Id": 179868, "Name": "Cedar Bay Grilling Company", "Slug": "cedar-bay-grilling-company", "Lat": 44.4940593, "Lon": -64.1127536, "Address": "60 Gates Fishplant Rd", "City": "Blandford", "State": "NS", "Zip": "B0J 1C0", "Phone": null, "Upg": "true" }, "geometry": { "type": "Point", "coordinates": [ -64.1127536, 44.4940593 ] } },
{ "type": "Feature", "properties": { "Id": 179139, "Name": "Cedar Event Centre", "Slug": "cedar-event-centre-halifax", "Lat": 44.6612928, "Lon": -63.6522245, "Address": "111 Clayton Park Dr", "City": "Halifax", "State": "NS", "Zip": "B3M 1M3", "Phone": null, "Upg": "true" }, "geometry": { "type": "Point", "coordinates": [ -63.6522245, 44.6612928 ] } },
{ "type": "Feature", "properties": { "Id": 4334, "Name": "CEED - Centre for Entrepreneurship Education & Development", "Slug": "ceed-centre-for-entrepreneurship-education-development", "Lat": 44.6555123, "Lon": -63.6273085, "Address": "Bayers Road Centre", "City": "Halifax", "State": "NS", "Zip": "B3L 2C2", "Phone": null, "Upg": "true" }, "geometry": { "type": "Point", "coordinates": [ -63.627308500000012, 44.6555123 ] } },
{ "type": "Feature", "properties": { "Id": 10917, "Name": "Centennial Pool Association", "Slug": "centennial-pool-association", "Lat": 44.6499767, "Lon": -63.5816278, "Address": "1970 Gottingen St", "City": "Halifax", "State": "NS", "Zip": "B3J 3Y2", "Phone": null, "Upg": "true" }, "geometry": { "type": "Point", "coordinates": [ -63.5816278, 44.6499767 ] } },
{ "type": "Feature", "properties": { "Id": 22897, "Name": "Centre for Women in Business (MSVU)", "Slug": "centre-for-women-in-business-msvu", "Lat": 44.671308, "Lon": -63.6461587, "Address": "Mount Saint Vincent University 166 Bedford Hwy", "City": "Halifax", "State": "NS", "Zip": "B3M 2J6", "Phone": null, "Upg": "true" }, "geometry": { "type": "Point", "coordinates": [ -63.6461587, 44.671308 ] } },
{ "type": "Feature", "properties": { "Id": 877, "Name": "Centura Atlantic", "Slug": "centura-atlantic", "Lat": 44.7035381, "Lon": -63.5984776, "Address": "66 Wright Ave.", "City": "Dartmouth", "State": "NS", "Zip": "B3B 1H3", "Phone": null, "Upg": "true" }, "geometry": { "type": "Point", "coordinates": [ -63.5984776, 44.7035381 ] } },
{ "type": "Feature", "properties": { "Id": 174985, "Name": "Century 21 Trident Realty Ltd.", "Slug": "century-21-trident-realty-ltd", "Lat": 44.6979261, "Lon": -63.4907392, "Address": "796 Main Street", "City": "Dartmouth", "State": "NS", "Zip": "B2W 3V1", "Phone": null, "Upg": "true" }, "geometry": { "type": "Point", "coordinates": [ -63.4907392, 44.6979261 ] } },
{ "type": "Feature", "properties": { "Id": 120, "Name": "Ceridian Canada Ltd.", "Slug": "ceridian-canada-ltd", "Lat": 44.6941036, "Lon": -63.5797408, "Address": "310-238 Brownlow Ave", "City": "Dartmouth", "State": "NS", "Zip": "B3B 1Y2", "Phone": null, "Upg": "true" }, "geometry": { "type": "Point", "coordinates": [ -63.5797408, 44.6941036 ] } },
{ "type": "Feature", "properties": { "Id": 13869, "Name": "CFN Consultants (Atlantic) Inc.", "Slug": "cfn-consultants-atlantic-inc", "Lat": 44.6473259, "Lon": -63.5722689, "Address": "Founders Square", "City": "Halifax", "State": "NS", "Zip": "B3J 3M8", "Phone": null, "Upg": "true" }, "geometry": { "type": "Point", "coordinates": [ -63.5722689, 44.6473259 ] } },
{ "type": "Feature", "properties": { "Id": 9635, "Name": "CGI", "Slug": "cgi-halifax", "Lat": 44.6558793, "Lon": -63.6258569, "Address": "7071 Bayers Rd", "City": "Halifax", "State": "NS", "Zip": "B3L 2C2", "Phone": null, "Upg": "true" }, "geometry": { "type": "Point", "coordinates": [ -63.6258569, 44.6558793 ] } },
{ "type": "Feature", "properties": { "Id": 161810, "Name": "Chain-Yard Cider", "Slug": "chain-yard-cider-halifax", "Lat": 44.6555365, "Lon": -63.5939909, "Address": "2606 Agricola Street ", "City": "Halifax", "State": "NS", "Zip": "B3K 4C8", "Phone": null, "Upg": "true" }, "geometry": { "type": "Point", "coordinates": [ -63.593990899999987, 44.6555365 ] } },
{ "type": "Feature", "properties": { "Id": 21123, "Name": "Chalice (Canada)", "Slug": "chalice-canada", "Lat": 44.7324575, "Lon": -63.6609366, "Address": "101-26 Union St", "City": "Bedford", "State": "NS", "Zip": "B4A 2B5", "Phone": null, "Upg": "true" }, "geometry": { "type": "Point", "coordinates": [ -63.6609366, 44.7324575 ] } },
{ "type": "Feature", "properties": { "Id": 179280, "Name": "Changing Seasons Landscaping", "Slug": "changing-seasons-landscaping", "Lat": 44.5729335, "Lon": -63.6322721, "Address": "1036 Old Sambro Rd", "City": "Harrietsfield", "State": "NS", "Zip": "B3V 1B1", "Phone": null, "Upg": "true" }, "geometry": { "type": "Point", "coordinates": [ -63.6322721, 44.5729335 ] } },
{ "type": "Feature", "properties": { "Id": 180311, "Name": "Chapman Family Law", "Slug": "chapman-family-law-dartmouth", "Lat": 44.6683994, "Lon": -63.5665, "Address": "103 Ochterloney Street", "City": "Dartmouth", "State": "NS", "Zip": "B2Y1C6", "Phone": null, "Upg": "true" }, "geometry": { "type": "Point", "coordinates": [ -63.5665, 44.6683994 ] } },
{ "type": "Feature", "properties": { "Id": 259, "Name": "Charm Diamond Centres", "Slug": "charm-diamond-centres", "Lat": 44.6670599, "Lon": -63.5649484, "Address": "140 Portland St", "City": "Dartmouth", "State": "NS", "Zip": "B2Y 1J1", "Phone": null, "Upg": "true" }, "geometry": { "type": "Point", "coordinates": [ -63.5649484, 44.6670599 ] } },
{ "type": "Feature", "properties": { "Id": 2831, "Name": "Chartered Professional Accountants of Nova Scotia", "Slug": "chartered-professional-accountants-of-nova-scotia", "Lat": 44.6498379, "Lon": -63.5736576, "Address": "1871 Hollis St", "City": "Halifax", "State": "NS", "Zip": "B3J 0C3", "Phone": null, "Upg": "true" }, "geometry": { "type": "Point", "coordinates": [ -63.5736576, 44.6498379 ] } },
{ "type": "Feature", "properties": { "Id": 16893, "Name": "Chartered Professionals in Human Resources Nova Scotia - CPHR", "Slug": "chartered-professionals-in-human-resources-nova-scotia-cphr", "Lat": 44.6380575, "Lon": -63.665713, "Address": "103-84 Chain Lake Dr", "City": "Halifax", "State": "NS", "Zip": "B3S 1A2", "Phone": null, "Upg": "true" }, "geometry": { "type": "Point", "coordinates": [ -63.665713, 44.6380575 ] } },
{ "type": "Feature", "properties": { "Id": 5393, "Name": "Chateau Bedford", "Slug": "chateau-bedford", "Lat": 44.684842, "Lon": -63.675857, "Address": "133 Kearney Lake Rd", "City": "Halifax", "State": "NS", "Zip": "B3M 4P3", "Phone": null, "Upg": "true" }, "geometry": { "type": "Point", "coordinates": [ -63.675857, 44.684842 ] } },
{ "type": "Feature", "properties": { "Id": 176765, "Name": "Chebucto Links Senior Support Association", "Slug": "chebucto-links-senior-support-association", "Lat": 44.6516943, "Lon": -63.6152064, "Address": "6670 Bayers Road", "City": "Halifax", "State": "NS", "Zip": "B3L 2B5", "Phone": null, "Upg": "true" }, "geometry": { "type": "Point", "coordinates": [ -63.6152064, 44.6516943 ] } },
{ "type": "Feature", "properties": { "Id": 22995, "Name": "Chef Abod Cafe & Catering", "Slug": "chef-abod-cafe-catering", "Lat": 44.6604223, "Lon": -63.6060403, "Address": "3217 Kempt Rd", "City": "Halifax", "State": "NS", "Zip": "B3K 4X2", "Phone": null, "Upg": "true" }, "geometry": { "type": "Point", "coordinates": [ -63.6060403, 44.6604223 ] } },
{ "type": "Feature", "properties": { "Id": 8350, "Name": "Cherubini Metal Works Limited", "Slug": "cherubini-metal-works-limited", "Lat": 44.7198597, "Lon": -63.5708318, "Address": "570 Wilkinson Ave", "City": "Dartmouth", "State": "NS", "Zip": "B3B 0J4", "Phone": null, "Upg": "true" }, "geometry": { "type": "Point", "coordinates": [ -63.5708318, 44.7198597 ] } },
{ "type": "Feature", "properties": { "Id": 19548, "Name": "Chester Golf Club", "Slug": "chester-golf-club", "Lat": 44.778889, "Lon": -64.563817, "Address": "PO Box 791", "City": "Chester", "State": "NS", "Zip": "B0J 1J0", "Phone": null, "Upg": "true" }, "geometry": { "type": "Point", "coordinates": [ -64.563817, 44.778889 ] } },
{ "type": "Feature", "properties": { "Id": 11270, "Name": "Chester Municipal Chamber of Commerce", "Slug": "chester-municipal-chamber-of-commerce", "Lat": 44.778889, "Lon": -64.563817, "Address": "PO Box 1032", "City": "Chester", "State": "NS", "Zip": "B0J 1J0", "Phone": null, "Upg": "true" }, "geometry": { "type": "Point", "coordinates": [ -64.563817, 44.778889 ] } },
{ "type": "Feature", "properties": { "Id": 178790, "Name": "Chop Steakhouse and Bar", "Slug": "chop-steakhouse-and-bar", "Lat": 44.6460475, "Lon": -63.5750953, "Address": "1680 Grafton Street", "City": "Halifax", "State": "NS", "Zip": "B3J 2C4", "Phone": null, "Upg": "true" }, "geometry": { "type": "Point", "coordinates": [ -63.5750953, 44.6460475 ] } },
{ "type": "Feature", "properties": { "Id": 180339, "Name": "Chris Melnyk - Realtor", "Slug": "chris-melnyk-realtor", "Lat": 44.6556249, "Lon": -63.6265581, "Address": "102 - 7071 Bayers Rd", "City": "Halifax", "State": "NS", "Zip": "B3L 2C2", "Phone": null, "Upg": "true" }, "geometry": { "type": "Point", "coordinates": [ -63.6265581, 44.6556249 ] } },
{ "type": "Feature", "properties": { "Id": 178702, "Name": "Christian Bailey Ltd.", "Slug": "christian-bailey-ltd", "Lat": 44.66091, "Lon": -63.627297, "Address": "Sutton Group Professional Realty", "City": "Halifax", "State": "NS", "Zip": "B3L 4H9", "Phone": null, "Upg": "true" }, "geometry": { "type": "Point", "coordinates": [ -63.627297, 44.66091 ] } },
{ "type": "Feature", "properties": { "Id": 1995, "Name": "CIBC", "Slug": "cibc", "Lat": 44.6438996, "Lon": -63.5723894, "Address": "1501-1809 Barrington St", "City": "Halifax", "State": "NS", "Zip": "B3J 3K8", "Phone": null, "Upg": "true" }, "geometry": { "type": "Point", "coordinates": [ -63.5723894, 44.6438996 ] } },
{ "type": "Feature", "properties": { "Id": 174989, "Name": "Cineplex", "Slug": "cineplex", "Lat": 44.6495435, "Lon": -63.6711777, "Address": "190 Chain Lake Drive", "City": "Halifax", "State": "NS", "Zip": "B3S 1C5", "Phone": null, "Upg": "true" }, "geometry": { "type": "Point", "coordinates": [ -63.6711777, 44.6495435 ] } },
{ "type": "Feature", "properties": { "Id": 162048, "Name": "City Centre Property Management", "Slug": "city-centre-property-management-halifax", "Lat": 44.6645212, "Lon": -63.6355629, "Address": "300 - 50 Bedford Highway", "City": "Halifax", "State": "NS", "Zip": "B3M 0J9", "Phone": null, "Upg": "true" }, "geometry": { "type": "Point", "coordinates": [ -63.6355629, 44.6645212 ] } },
{ "type": "Feature", "properties": { "Id": 28672, "Name": "CKG Group", "Slug": "ckg-elevator-ckg-overhead-crane-and-hoist-ckg-construction-hoist", "Lat": 44.6958718, "Lon": -63.5873316, "Address": "70 MacDonald Ave", "City": "Dartmouth", "State": "NS", "Zip": "B3B 1V8", "Phone": null, "Upg": "true" }, "geometry": { "type": "Point", "coordinates": [ -63.5873316, 44.6958718 ] } },
{ "type": "Feature", "properties": { "Id": 178572, "Name": "Clarified Accounting", "Slug": "clarified-accounting-halifax", "Lat": 44.6372572, "Lon": -63.6702394, "Address": "84 Chain Lake Dr", "City": "Halifax", "State": "NS", "Zip": "B3S 1A2", "Phone": null, "Upg": "true" }, "geometry": { "type": "Point", "coordinates": [ -63.6702394, 44.6372572 ] } },
{ "type": "Feature", "properties": { "Id": 8142, "Name": "Clean Foundation", "Slug": "clean-foundation", "Lat": 44.6666372, "Lon": -63.5651706, "Address": "126 Portland Street", "City": "Dartmouth", "State": "NS", "Zip": "B2Y 1H8", "Phone": null, "Upg": "true" }, "geometry": { "type": "Point", "coordinates": [ -63.5651706, 44.6666372 ] } },
{ "type": "Feature", "properties": { "Id": 179645, "Name": "Clean Valley Bio-filtration Technologies CIC", "Slug": "clean-valley-bio-filtration-technologies-cic", "Lat": 44.6810243, "Lon": -63.5456998, "Address": "371 Prince Albert Rd", "City": "Dartmouth", "State": "NS", "Zip": "B2Y 1N8", "Phone": null, "Upg": "true" }, "geometry": { "type": "Point", "coordinates": [ -63.5456998, 44.6810243 ] } },
{ "type": "Feature", "properties": { "Id": 4531, "Name": "Clearwater Seafoods Limited Partnership", "Slug": "clearwater-seafoods-limited-partnership", "Lat": 44.7074445, "Lon": -63.6652689, "Address": "757 Bedford Hwy", "City": "Bedford", "State": "NS", "Zip": "B4A 3Z7", "Phone": null, "Upg": "true" }, "geometry": { "type": "Point", "coordinates": [ -63.6652689, 44.7074445 ] } },
{ "type": "Feature", "properties": { "Id": 179240, "Name": "Clinton Wilkins Mortgage Team", "Slug": "clinton-wilkins-mortgage-team", "Lat": 44.6690534, "Lon": -63.5765902, "Address": "99 Wyse Rd", "City": "Dartmouth", "State": "NS", "Zip": "B3A 4S5 ", "Phone": null, "Upg": "true" }, "geometry": { "type": "Point", "coordinates": [ -63.5765902, 44.6690534 ] } },
{ "type": "Feature", "properties": { "Id": 179709, "Name": "Club Inclusion", "Slug": "club-inclusion", "Lat": 44.6420446, "Lon": -63.6222872, "Address": "2652 Joseph Howe Dr", "City": "Halifax", "State": "NS", "Zip": "B3N1E3", "Phone": null, "Upg": "true" }, "geometry": { "type": "Point", "coordinates": [ -63.6222872, 44.6420446 ] } },
{ "type": "Feature", "properties": { "Id": 180191, "Name": "Cluett Insurance", "Slug": "cluett-insurance", "Lat": 44.6978795, "Lon": -63.6047909, "Address": "629 Windmill Road", "City": "Dartmouth", "State": "NS", "Zip": "B3B 1B6", "Phone": null, "Upg": "true" }, "geometry": { "type": "Point", "coordinates": [ -63.6047909, 44.6978795 ] } },
{ "type": "Feature", "properties": { "Id": 175049, "Name": "Clutterbug Cleaning & Organizing Inc.", "Slug": "clutterbug-cleaning-organizing-inc", "Lat": 44.6406922, "Lon": -63.6707286, "Address": "211 Horseshoe Lake Drive", "City": "Halifax", "State": "NS", "Zip": "B3S 1E7", "Phone": null, "Upg": "true" }, "geometry": { "type": "Point", "coordinates": [ -63.6707286, 44.6406922 ] } },
{ "type": "Feature", "properties": { "Id": 180095, "Name": "CMHA Halifax-Dartmouth Branch", "Slug": "cmha-halifax-dartmouth-branch", "Lat": 44.6508151, "Lon": -63.5818766, "Address": "2020 Gottingen Street", "City": "Halifax", "State": "NS", "Zip": "B3K 3A9", "Phone": null, "Upg": "true" }, "geometry": { "type": "Point", "coordinates": [ -63.5818766, 44.6508151 ] } },
{ "type": "Feature", "properties": { "Id": 23527, "Name": "Coach Atlantic Group", "Slug": "coach-atlantic-group-halifax", "Lat": 44.663951, "Lon": -63.6236672, "Address": "6575 Bayne St", "City": "Halifax", "State": "NS", "Zip": "B3K 2V6", "Phone": null, "Upg": "true" }, "geometry": { "type": "Point", "coordinates": [ -63.6236672, 44.663951 ] } },
{ "type": "Feature", "properties": { "Id": 27709, "Name": "Coastal Cafe", "Slug": "coastal-cafe", "Lat": 44.6566289, "Lon": -63.5974968, "Address": "2731 Robie St", "City": "Halifax", "State": "NS", "Zip": "B3K 4P1", "Phone": null, "Upg": "true" }, "geometry": { "type": "Point", "coordinates": [ -63.5974968, 44.6566289 ] } },
{ "type": "Feature", "properties": { "Id": 10033, "Name": "Coastal Inn Halifax", "Slug": "coastal-inn-halifax", "Lat": 44.6375782, "Lon": -63.6668064, "Address": "98 Chain Lake Drive", "City": "Halifax", "State": "NS", "Zip": "B3S 1A2", "Phone": null, "Upg": "true" }, "geometry": { "type": "Point", "coordinates": [ -63.6668064, 44.6375782 ] } },
{ "type": "Feature", "properties": { "Id": 9604, "Name": "Cobequid Health Centre Foundation", "Slug": "cobequid-health-centre-foundation", "Lat": 44.75752, "Lon": -63.6597183, "Address": "2203 - 40 Freer Lane", "City": "Lower Sackville", "State": "NS", "Zip": "B4C 0A2", "Phone": null, "Upg": "true" }, "geometry": { "type": "Point", "coordinates": [ -63.6597183, 44.75752 ] } },
{ "type": "Feature", "properties": { "Id": 9912, "Name": "Coldwell Banker Supercity Realty 1998 Ltd.", "Slug": "coldwell-banker-supercity-realty-1998-ltd", "Lat": 44.6394754, "Lon": -63.6614074, "Address": "128 Chain Lake Dr", "City": "Halifax", "State": "NS", "Zip": "B3S 1A2", "Phone": null, "Upg": "true" }, "geometry": { "type": "Point", "coordinates": [ -63.6614074, 44.6394754 ] } },
{ "type": "Feature", "properties": { "Id": 9063, "Name": "Cole International Inc.", "Slug": "cole-international-inc", "Lat": 44.6508981, "Lon": -63.5773633, "Address": "1202-2000 Barrington Street", "City": "Halifax", "State": "NS", "Zip": "B3J 3K1", "Phone": null, "Upg": "true" }, "geometry": { "type": "Point", "coordinates": [ -63.5773633, 44.6508981 ] } },